ZIP,Latitude,Longitude,Accuracy Score,Accuracy Type,Number,Street,Unit Type,Unit Number,City,State,County,Zip,Country,Source,State Legislative District House,State Legislative District Senate,Congressional District,Congress
53215,43.006014,-87.942935,1,place,,,,,Milwaukee,WI,Milwaukee County,53215,US,TIGER/Line® dataset from the US Census Bureau,Assembly District 8,State Senate District 3,WI4,117th
54601,43.806197,-91.140529,1,place,,,,,La Crosse,WI,La Crosse County,54601,US,TIGER/Line® dataset from the US Census Bureau,Assembly District 94,State Senate District 32,WI3,117th
53711,43.021252,-89.417973,1,place,,,,,Madison,WI,Dane County,53711,US,TIGER/Line® dataset from the US Census Bureau,Assembly District 47,State Senate District 16,WI2,117th
53511,42.562039,-89.086045,1,place,,,,,Beloit,WI,Rock County,53511,US,TIGER/Line® dataset from the US Census Bureau,Assembly District 45,State Senate District 15,WI2,117th
53209,43.140909,-87.942653,1,place,,,,,Milwaukee,WI,Milwaukee County,53209,US,TIGER/Line® dataset from the US Census Bureau,Assembly District 24,State Senate District 8,WI4,117th
53704,43.136269,-89.347319,1,place,,,,,Madison,WI,Dane County,53704,US,TIGER/Line® dataset from the US Census Bureau,Assembly District 48,State Senate District 16,WI2,117th
54115,44.44888,-88.06038,1,place,,,,,De Pere,WI,Brown County,54115,US,TIGER/Line® dataset from the US Census Bureau,Assembly District 88,State Senate District 30,WI8,117th
54956,44.182337,-88.527574,1,place,,,,,Neenah,WI,Winnebago County,54956,US,TIGER/Line® dataset from the US Census Bureau,Assembly District 55,State Senate District 19,WI6,117th
54703,44.836453,-91.518514,1,place,,,,,Eau Claire,WI,Eau Claire County,54703,US,TIGER/Line® dataset from the US Census Bureau,Assembly District 91,State Senate District 31,WI3,117th
54915,44.243138,-88.356058,1,place,,,,,Appleton,WI,Calumet County,54915,US,TIGER/Line® dataset from the US Census Bureau,Assembly District 3,State Senate District 1,WI8,117th
53081,43.71011,-87.735217,1,place,,,,,Sheboygan,WI,Sheboygan County,53081,US,TIGER/Line® dataset from the US Census Bureau,Assembly District 26,State Senate District 9,WI6,117th
54935,43.77366,-88.436782,1,place,,,,,Fond Du Lac,WI,Fond Du Lac County,54935,US,TIGER/Line® dataset from the US Census Bureau,Assembly District 52,State Senate District 18,WI6,117th
53218,43.11546,-87.991687,1,place,,,,,Milwaukee,WI,Milwaukee County,53218,US,TIGER/Line® dataset from the US Census Bureau,Assembly District 11,State Senate District 4,WI4,117th
54701,44.75653,-91.473097,1,place,,,,,Eau Claire,WI,Eau Claire County,54701,US,TIGER/Line® dataset from the US Census Bureau,Assembly District 93,State Senate District 31,WI3,117th
53590,43.195712,-89.209418,1,place,,,,,Sun Prairie,WI,Dane County,53590,US,TIGER/Line® dataset from the US Census Bureau,Assembly District 46,State Senate District 16,WI2,117th
53221,42.953909,-87.943306,1,place,,,,,Milwaukee,WI,Milwaukee County,53221,US,TIGER/Line® dataset from the US Census Bureau,Assembly District 7,State Senate District 3,WI4,117th
54220,44.109709,-87.714403,1,place,,,,,Manitowoc,WI,Manitowoc County,54220,US,TIGER/Line® dataset from the US Census Bureau,Assembly District 25,State Senate District 9,WI6,117th
54313,44.586363,-88.115165,1,place,,,,,Green Bay,WI,Brown County,54313,US,TIGER/Line® dataset from the US Census Bureau,Assembly District 5,State Senate District 2,WI8,117th
53204,43.019463,-87.925534,1,place,,,,,Milwaukee,WI,Milwaukee County,53204,US,TIGER/Line® dataset from the US Census Bureau,Assembly District 8,State Senate District 3,WI4,117th
54901,44.062886,-88.535694,1,place,,,,,Oshkosh,WI,Winnebago County,54901,US,TIGER/Line® dataset from the US Census Bureau,Assembly District 53,State Senate District 18,WI6,117th
53051,43.159363,-88.121527,1,place,,,,,Menomonee Falls,WI,Waukesha County,53051,US,TIGER/Line® dataset from the US Census Bureau,Assembly District 22,State Senate District 8,WI5,117th
53207,42.975115,-87.894682,1,place,,,,,Milwaukee,WI,Milwaukee County,53207,US,TIGER/Line® dataset from the US Census Bureau,Assembly District 20,State Senate District 7,WI4,117th
54311,44.479888,-87.892181,1,place,,,,,Green Bay,WI,Brown County,54311,US,TIGER/Line® dataset from the US Census Bureau,Assembly District 88,State Senate District 30,WI8,117th
53154,42.886266,-87.89198,1,place,,,,,Oak Creek,WI,Milwaukee County,53154,US,TIGER/Line® dataset from the US Census Bureau,Assembly District 21,State Senate District 7,WI1,117th
53132,42.887289,-88.009597,1,place,,,,,Franklin,WI,Milwaukee County,53132,US,TIGER/Line® dataset from the US Census Bureau,Assembly District 82,State Senate District 28,WI1,117th
53188,43.022273,-88.292435,1,place,,,,,Waukesha,WI,Waukesha County,53188,US,TIGER/Line® dataset from the US Census Bureau,Assembly District 98,State Senate District 33,WI5,117th
53214,43.021514,-88.017587,1,place,,,,,Milwaukee,WI,Milwaukee County,53214,US,TIGER/Line® dataset from the US Census Bureau,Assembly District 13,State Senate District 5,WI5,117th
53211,43.082018,-87.889534,1,place,,,,,Milwaukee,WI,Milwaukee County,53211,US,TIGER/Line® dataset from the US Census Bureau,Assembly District 10,State Senate District 4,WI4,117th
53066,43.087062,-88.463305,1,place,,,,,Oconomowoc,WI,Waukesha County,53066,US,TIGER/Line® dataset from the US Census Bureau,Assembly District 99,State Senate District 33,WI5,117th
53219,42.995814,-87.990335,1,place,,,,,Milwaukee,WI,Milwaukee County,53219,US,TIGER/Line® dataset from the US Census Bureau,Assembly District 7,State Senate District 3,WI4,117th
53703,43.079575,-89.378389,1,place,,,,,Madison,WI,Dane County,53703,US,TIGER/Line® dataset from the US Census Bureau,Assembly District 76,State Senate District 26,WI2,117th
53216,43.086244,-87.976988,1,place,,,,,Milwaukee,WI,Milwaukee County,53216,US,TIGER/Line® dataset from the US Census Bureau,Assembly District 17,State Senate District 6,WI4,117th
53402,42.795889,-87.816532,1,place,,,,,Racine,WI,Racine County,53402,US,TIGER/Line® dataset from the US Census Bureau,Assembly District 62,State Senate District 21,WI1,117th
53142,42.518443,-87.982634,1,place,,,,,Kenosha,WI,Kenosha County,53142,US,TIGER/Line® dataset from the US Census Bureau,Assembly District 61,State Senate District 21,WI1,117th
53186,43.022155,-88.204676,1,place,,,,,Waukesha,WI,Waukesha County,53186,US,TIGER/Line® dataset from the US Census Bureau,Assembly District 98,State Senate District 33,WI5,117th
54729,44.958689,-91.319492,1,place,,,,,Chippewa Falls,WI,Chippewa County,54729,US,TIGER/Line® dataset from the US Census Bureau,Assembly District 68,State Senate District 23,WI3,117th
54016,44.97469,-92.75687,1,place,,,,,Hudson,WI,St. Croix County,54016,US,TIGER/Line® dataset from the US Census Bureau,Assembly District 30,State Senate District 10,WI7,117th
54302,44.495042,-87.978652,1,place,,,,,Green Bay,WI,Brown County,54302,US,TIGER/Line® dataset from the US Census Bureau,Assembly District 90,State Senate District 30,WI8,117th
53151,42.973459,-88.127689,1,place,,,,,New Berlin,WI,Waukesha County,53151,US,TIGER/Line® dataset from the US Census Bureau,Assembly District 84,State Senate District 28,WI5,117th
53719,43.045313,-89.515378,1,place,,,,,Madison,WI,Dane County,53719,US,TIGER/Line® dataset from the US Census Bureau,Assembly District 78,State Senate District 26,WI2,117th
54914,44.280839,-88.452033,1,place,,,,,Appleton,WI,Outagamie County,54914,US,TIGER/Line® dataset from the US Census Bureau,Assembly District 55,State Senate District 19,WI8,117th
54401,44.963304,-89.704051,1,place,,,,,Wausau,WI,Marathon County,54401,US,TIGER/Line® dataset from the US Census Bureau,Assembly District 85,State Senate District 29,WI7,117th
53212,43.074862,-87.907178,1,place,,,,,Milwaukee,WI,Milwaukee County,53212,US,TIGER/Line® dataset from the US Census Bureau,Assembly District 10,State Senate District 4,WI4,117th
53546,42.663574,-88.947859,1,place,,,,,Janesville,WI,Rock County,53546,US,TIGER/Line® dataset from the US Census Bureau,Assembly District 31,State Senate District 11,WI1,117th
53208,43.045962,-87.963536,1,place,,,,,Milwaukee,WI,Milwaukee County,53208,US,TIGER/Line® dataset from the US Census Bureau,Assembly District 18,State Senate District 6,WI4,117th
54880,46.574982,-92.117578,1,place,,,,,Superior,WI,Douglas County,54880,US,TIGER/Line® dataset from the US Census Bureau,Assembly District 73,State Senate District 25,WI7,117th
53105,42.692103,-88.228793,1,place,,,,,Burlington,WI,Racine County,53105,US,TIGER/Line® dataset from the US Census Bureau,Assembly District 63,State Senate District 21,WI1,117th
53140,42.622449,-87.830375,1,place,,,,,Kenosha,WI,Kenosha County,53140,US,TIGER/Line® dataset from the US Census Bureau,Assembly District 64,State Senate District 22,WI1,117th
53223,43.162959,-87.977896,1,place,,,,,Milwaukee,WI,Milwaukee County,53223,US,TIGER/Line® dataset from the US Census Bureau,Assembly District 11,State Senate District 4,WI4,117th
53217,43.157299,-87.913268,1,place,,,,,Milwaukee,WI,Milwaukee County,53217,US,TIGER/Line® dataset from the US Census Bureau,Assembly District 24,State Senate District 8,WI4,117th
54481,44.510664,-89.638254,1,place,,,,,Stevens Point,WI,Portage County,54481,US,TIGER/Line® dataset from the US Census Bureau,Assembly District 71,State Senate District 24,WI3,117th
53213,43.048802,-88.001511,1,place,,,,,Milwaukee,WI,Milwaukee County,53213,US,TIGER/Line® dataset from the US Census Bureau,Assembly District 13,State Senate District 5,WI5,117th
54303,44.552247,-88.078803,1,place,,,,,Green Bay,WI,Brown County,54303,US,TIGER/Line® dataset from the US Census Bureau,Assembly District 4,State Senate District 2,WI8,117th
53095,43.422223,-88.195862,1,place,,,,,West Bend,WI,Washington County,53095,US,TIGER/Line® dataset from the US Census Bureau,Assembly District 58,State Senate District 20,WI5,117th
54304,44.497541,-88.032443,1,place,,,,,Green Bay,WI,Brown County,54304,US,TIGER/Line® dataset from the US Census Bureau,Assembly District 90,State Senate District 30,WI8,117th
54952,44.20104,-88.329484,1,place,,,,,Menasha,WI,Calumet County,54952,US,TIGER/Line® dataset from the US Census Bureau,Assembly District 3,State Senate District 1,WI8,117th
53210,43.071111,-87.973786,1,place,,,,,Milwaukee,WI,Milwaukee County,53210,US,TIGER/Line® dataset from the US Census Bureau,Assembly District 18,State Senate District 6,WI4,117th
53189,42.95163,-88.296321,1,place,,,,,Waukesha,WI,Waukesha County,53189,US,TIGER/Line® dataset from the US Census Bureau,Assembly District 97,State Senate District 33,WI1,117th
54494,44.340837,-89.73492,1,place,,,,,Wisconsin Rapids,WI,Wood County,54494,US,TIGER/Line® dataset from the US Census Bureau,Assembly District 72,State Senate District 24,WI3,117th
53225,43.115159,-88.040188,1,place,,,,,Milwaukee,WI,Milwaukee County,53225,US,TIGER/Line® dataset from the US Census Bureau,Assembly District 12,State Senate District 4,WI4,117th
53144,42.618427,-87.948079,1,place,,,,,Kenosha,WI,Kenosha County,53144,US,TIGER/Line® dataset from the US Census Bureau,Assembly District 61,State Senate District 21,WI1,117th
53222,43.082161,-88.036938,1,place,,,,,Milwaukee,WI,Milwaukee County,53222,US,TIGER/Line® dataset from the US Census Bureau,Assembly District 14,State Senate District 5,WI4,117th
53220,42.955864,-87.993285,1,place,,,,,Milwaukee,WI,Milwaukee County,53220,US,TIGER/Line® dataset from the US Census Bureau,Assembly District 84,State Senate District 28,WI5,117th
54911,44.275702,-88.370856,1,place,,,,,Appleton,WI,Outagamie County,54911,US,TIGER/Line® dataset from the US Census Bureau,Assembly District 56,State Senate District 19,WI8,117th
53403,42.684188,-87.815533,1,place,,,,,Racine,WI,Racine County,53403,US,TIGER/Line® dataset from the US Census Bureau,Assembly District 66,State Senate District 22,WI1,117th
53562,43.114772,-89.529153,1,place,,,,,Middleton,WI,Dane County,53562,US,TIGER/Line® dataset from the US Census Bureau,Assembly District 79,State Senate District 27,WI2,117th
53406,42.72993,-87.866213,1,place,,,,,Racine,WI,Racine County,53406,US,TIGER/Line® dataset from the US Census Bureau,Assembly District 63,State Senate District 21,WI1,117th
54751,44.867809,-91.943198,1,place,,,,,Menomonie,WI,Dunn County,54751,US,TIGER/Line® dataset from the US Census Bureau,Assembly District 29,State Senate District 10,WI3,117th
53072,43.080185,-88.264875,1,place,,,,,Pewaukee,WI,Waukesha County,53072,US,TIGER/Line® dataset from the US Census Bureau,Assembly District 98,State Senate District 33,WI5,117th
54130,44.27804,-88.27205,1,place,,,,,Kaukauna,WI,Outagamie County,54130,US,TIGER/Line® dataset from the US Census Bureau,Assembly District 5,State Senate District 2,WI8,117th
53150,42.88799,-88.132708,1,place,,,,,Muskego,WI,Waukesha County,53150,US,TIGER/Line® dataset from the US Census Bureau,Assembly District 83,State Senate District 28,WI1,117th
53705,43.073147,-89.45681,1,place,,,,,Madison,WI,Dane County,53705,US,TIGER/Line® dataset from the US Census Bureau,Assembly District 77,State Senate District 26,WI2,117th
54449,44.589394,-90.190595,1,place,,,,,Marshfield,WI,Wood County,54449,US,TIGER/Line® dataset from the US Census Bureau,Assembly District 70,State Senate District 24,WI7,117th
53405,42.731827,-87.820925,1,place,,,,,Racine,WI,Racine County,53405,US,TIGER/Line® dataset from the US Census Bureau,Assembly District 62,State Senate District 21,WI1,117th
53202,43.043213,-87.894734,1,place,,,,,Milwaukee,WI,Milwaukee County,53202,US,TIGER/Line® dataset from the US Census Bureau,Assembly District 19,State Senate District 7,WI4,117th
54650,43.886664,-91.130399,1,place,,,,,Onalaska,WI,La Crosse County,54650,US,TIGER/Line® dataset from the US Census Bureau,Assembly District 94,State Senate District 32,WI3,117th
54403,44.952863,-89.531804,1,place,,,,,Wausau,WI,Marathon County,54403,US,TIGER/Line® dataset from the US Census Bureau,Assembly District 85,State Senate District 29,WI7,117th
53593,42.995697,-89.566512,1,place,,,,,Verona,WI,Dane County,53593,US,TIGER/Line® dataset from the US Census Bureau,Assembly District 79,State Senate District 27,WI2,117th
53227,43.000926,-88.031418,1,place,,,,,Milwaukee,WI,Milwaukee County,53227,US,TIGER/Line® dataset from the US Census Bureau,Assembly District 15,State Senate District 5,WI5,117th
54022,44.802351,-92.595365,1,place,,,,,River Falls,WI,Pierce County,54022,US,TIGER/Line® dataset from the US Census Bureau,Assembly District 30,State Senate District 10,WI3,117th
53027,43.357616,-88.319032,1,place,,,,,Hartford,WI,Washington County,53027,US,TIGER/Line® dataset from the US Census Bureau,Assembly District 59,State Senate District 20,WI5,117th
53545,42.738888,-89.0403,1,place,,,,,Janesville,WI,Rock County,53545,US,TIGER/Line® dataset from the US Census Bureau,Assembly District 43,State Senate District 15,WI2,117th
53143,42.561312,-87.82993,1,place,,,,,Kenosha,WI,Kenosha County,53143,US,TIGER/Line® dataset from the US Census Bureau,Assembly District 65,State Senate District 22,WI1,117th
53916,43.466482,-88.862852,1,place,,,,,Beaver Dam,WI,Dodge County,53916,US,TIGER/Line® dataset from the US Census Bureau,Assembly District 39,State Senate District 13,WI6,117th
53206,43.074311,-87.933135,1,place,,,,,Milwaukee,WI,Milwaukee County,53206,US,TIGER/Line® dataset from the US Census Bureau,Assembly District 10,State Senate District 4,WI4,117th
54902,43.99461,-88.526025,1,place,,,,,Oshkosh,WI,Winnebago County,54902,US,TIGER/Line® dataset from the US Census Bureau,Assembly District 54,State Senate District 18,WI6,117th
53224,43.16333,-88.039699,1,place,,,,,Milwaukee,WI,Milwaukee County,53224,US,TIGER/Line® dataset from the US Census Bureau,Assembly District 12,State Senate District 4,WI4,117th
53713,43.037167,-89.397066,1,place,,,,,Madison,WI,Dane County,53713,US,TIGER/Line® dataset from the US Census Bureau,Assembly District 77,State Senate District 26,WI2,117th
53090,43.443839,-88.19631,1,place,,,,,West Bend,WI,Washington County,53090,US,TIGER/Line® dataset from the US Census Bureau,Assembly District 58,State Senate District 20,WI5,117th
54904,44.0234,-88.623839,1,place,,,,,Oshkosh,WI,Winnebago County,54904,US,TIGER/Line® dataset from the US Census Bureau,Assembly District 53,State Senate District 18,WI6,117th
53029,43.123679,-88.336087,1,place,,,,,Hartland,WI,Waukesha County,53029,US,TIGER/Line® dataset from the US Census Bureau,Assembly District 99,State Senate District 33,WI5,117th
54913,44.345553,-88.434297,1,place,,,,,Appleton,WI,Outagamie County,54913,US,TIGER/Line® dataset from the US Census Bureau,Assembly District 5,State Senate District 2,WI8,117th
54301,44.480778,-88.016063,1,place,,,,,Green Bay,WI,Brown County,54301,US,TIGER/Line® dataset from the US Census Bureau,Assembly District 4,State Senate District 2,WI8,117th
53045,43.06081,-88.15589,1,place,,,,,Brookfield,WI,Waukesha County,53045,US,TIGER/Line® dataset from the US Census Bureau,Assembly District 14,State Senate District 5,WI5,117th
53092,43.235856,-87.981188,1,place,,,,,Thiensville,WI,Ozaukee County,53092,US,TIGER/Line® dataset from the US Census Bureau,Assembly District 23,State Senate District 8,WI6,117th
53172,42.91057,-87.86064,1,place,,,,,South Milwaukee,WI,Milwaukee County,53172,US,TIGER/Line® dataset from the US Census Bureau,Assembly District 21,State Senate District 7,WI4,117th
53913,43.47109,-89.74429,1,place,,,,,Baraboo,WI,Sauk County,53913,US,TIGER/Line® dataset from the US Census Bureau,Assembly District 81,State Senate District 27,WI2,117th
53083,43.815872,-87.764212,1,place,,,,,Sheboygan,WI,Sheboygan County,53083,US,TIGER/Line® dataset from the US Census Bureau,Assembly District 27,State Senate District 9,WI6,117th
53149,42.86668,-88.33343,1,place,,,,,Mukwonago,WI,Waukesha County,53149,US,TIGER/Line® dataset from the US Census Bureau,Assembly District 33,State Senate District 11,WI1,117th
53589,42.931289,-89.168354,1,place,,,,,Stoughton,WI,Dane County,53589,US,TIGER/Line® dataset from the US Census Bureau,Assembly District 46,State Senate District 16,WI2,117th
53005,43.062707,-88.105906,1,place,,,,,Brookfield,WI,Waukesha County,53005,US,TIGER/Line® dataset from the US Census Bureau,Assembly District 14,State Senate District 5,WI5,117th
54501,45.704474,-89.386562,1,place,,,,,Rhinelander,WI,Oneida County,54501,US,TIGER/Line® dataset from the US Census Bureau,Assembly District 34,State Senate District 12,WI7,117th
54937,43.791998,-88.388482,1,place,,,,,Fond Du Lac,WI,Fond Du Lac County,54937,US,TIGER/Line® dataset from the US Census Bureau,Assembly District 52,State Senate District 18,WI6,117th
53597,43.19194,-89.45567,1,place,,,,,Waunakee,WI,Dane County,53597,US,TIGER/Line® dataset from the US Census Bureau,Assembly District 79,State Senate District 27,WI2,117th
53022,43.235477,-88.124711,1,place,,,,,Germantown,WI,Washington County,53022,US,TIGER/Line® dataset from the US Census Bureau,Assembly District 24,State Senate District 8,WI5,117th
53094,43.132599,-88.743595,1,place,,,,,Watertown,WI,Jefferson County,53094,US,TIGER/Line® dataset from the US Census Bureau,Assembly District 38,State Senate District 13,WI5,117th
53548,42.682455,-89.051926,0.9,place,,,,,Janesville,WI,Rock County,53548,US,TIGER/Line® dataset from the US Census Bureau,Assembly District 44,State Senate District 15,WI2,117th
53190,42.784255,-88.592559,1,place,,,,,Whitewater,WI,Walworth County,53190,US,TIGER/Line® dataset from the US Census Bureau,Assembly District 33,State Senate District 11,WI1,117th
53089,43.148887,-88.245381,1,place,,,,,Sussex,WI,Waukesha County,53089,US,TIGER/Line® dataset from the US Census Bureau,Assembly District 22,State Senate District 8,WI5,117th
53185,42.763168,-88.197361,1,place,,,,,Waterford,WI,Racine County,53185,US,TIGER/Line® dataset from the US Census Bureau,Assembly District 83,State Senate District 28,WI1,117th
54476,44.866501,-89.576968,1,place,,,,,Schofield,WI,Marathon County,54476,US,TIGER/Line® dataset from the US Census Bureau,Assembly District 86,State Senate District 29,WI7,117th
53121,42.671666,-88.563961,1,place,,,,,Elkhorn,WI,Walworth County,53121,US,TIGER/Line® dataset from the US Census Bureau,Assembly District 31,State Senate District 11,WI1,117th
53226,43.049312,-88.041387,1,place,,,,,Milwaukee,WI,Milwaukee County,53226,US,TIGER/Line® dataset from the US Census Bureau,Assembly District 13,State Senate District 5,WI5,117th
53538,42.926467,-88.841626,1,place,,,,,Fort Atkinson,WI,Jefferson County,53538,US,TIGER/Line® dataset from the US Census Bureau,Assembly District 33,State Senate District 11,WI5,117th
53716,43.063103,-89.313327,1,place,,,,,Madison,WI,Dane County,53716,US,TIGER/Line® dataset from the US Census Bureau,Assembly District 47,State Senate District 16,WI2,117th
54452,45.217518,-89.713291,1,place,,,,,Merrill,WI,Lincoln County,54452,US,TIGER/Line® dataset from the US Census Bureau,Assembly District 35,State Senate District 12,WI7,117th
53012,43.321475,-88.004033,1,place,,,,,Cedarburg,WI,Ozaukee County,53012,US,TIGER/Line® dataset from the US Census Bureau,Assembly District 60,State Senate District 20,WI6,117th
53110,42.948015,-87.866831,1,place,,,,,Cudahy,WI,Milwaukee County,53110,US,TIGER/Line® dataset from the US Census Bureau,Assembly District 20,State Senate District 7,WI4,117th
54455,44.809226,-89.701277,1,place,,,,,Mosinee,WI,Marathon County,54455,US,TIGER/Line® dataset from the US Census Bureau,Assembly District 86,State Senate District 29,WI7,117th
54017,45.090925,-92.496993,1,place,,,,,New Richmond,WI,St. Croix County,54017,US,TIGER/Line® dataset from the US Census Bureau,Assembly District 29,State Senate District 10,WI7,117th
54656,43.949925,-90.752783,1,place,,,,,Sparta,WI,Monroe County,54656,US,TIGER/Line® dataset from the US Census Bureau,Assembly District 96,State Senate District 32,WI3,117th
53024,43.299956,-87.94104,1,place,,,,,Grafton,WI,Ozaukee County,53024,US,TIGER/Line® dataset from the US Census Bureau,Assembly District 23,State Senate District 8,WI6,117th
53147,42.617877,-88.52023,1,place,,,,,Lake Geneva,WI,Walworth County,53147,US,TIGER/Line® dataset from the US Census Bureau,Assembly District 32,State Senate District 11,WI1,117th
54235,44.78333,-87.31667,1,place,,,,,Sturgeon Bay,WI,Door County,54235,US,TIGER/Line® dataset from the US Census Bureau,Assembly District 1,State Senate District 1,WI8,117th
53158,42.52926,-87.885546,1,place,,,,,Pleasant Prairie,WI,Kenosha County,53158,US,TIGER/Line® dataset from the US Census Bureau,Assembly District 61,State Senate District 21,WI1,117th
54166,44.745058,-88.664156,1,place,,,,,Shawano,WI,Shawano County,54166,US,TIGER/Line® dataset from the US Census Bureau,Assembly District 6,State Senate District 2,WI8,117th
53575,42.933918,-89.389642,1,place,,,,,Oregon,WI,Dane County,53575,US,TIGER/Line® dataset from the US Census Bureau,Assembly District 80,State Senate District 27,WI2,117th
53818,42.73416,-90.47846,1,place,,,,,Platteville,WI,Grant County,53818,US,TIGER/Line® dataset from the US Census Bureau,Assembly District 49,State Senate District 17,WI3,117th
53714,43.100348,-89.311966,1,place,,,,,Madison,WI,Dane County,53714,US,TIGER/Line® dataset from the US Census Bureau,Assembly District 48,State Senate District 16,WI2,117th
53115,42.641556,-88.653496,1,place,,,,,Delavan,WI,Walworth County,53115,US,TIGER/Line® dataset from the US Census Bureau,Assembly District 32,State Senate District 11,WI1,117th
54660,43.983826,-90.473336,1,place,,,,,Tomah,WI,Monroe County,54660,US,TIGER/Line® dataset from the US Census Bureau,Assembly District 96,State Senate District 32,WI3,117th
53532,43.24777,-89.34373,1,place,,,,,De Forest,WI,Dane County,53532,US,TIGER/Line® dataset from the US Census Bureau,Assembly District 37,State Senate District 13,WI2,117th
54868,45.519692,-91.826575,1,place,,,,,Rice Lake,WI,Barron County,54868,US,TIGER/Line® dataset from the US Census Bureau,Assembly District 75,State Senate District 25,WI7,117th
54981,44.35803,-89.08595,1,place,,,,,Waupaca,WI,Waupaca County,54981,US,TIGER/Line® dataset from the US Census Bureau,Assembly District 40,State Senate District 14,WI8,117th
53566,42.612966,-89.656994,1,place,,,,,Monroe,WI,Green County,53566,US,TIGER/Line® dataset from the US Census Bureau,Assembly District 51,State Senate District 17,WI2,117th
53233,43.037213,-87.933529,1,place,,,,,Milwaukee,WI,Milwaukee County,53233,US,TIGER/Line® dataset from the US Census Bureau,Assembly District 16,State Senate District 6,WI4,117th
53404,42.756718,-87.812275,1,place,,,,,Racine,WI,Racine County,53404,US,TIGER/Line® dataset from the US Census Bureau,Assembly District 62,State Senate District 21,WI1,117th
54143,45.086805,-87.716311,1,place,,,,,Marinette,WI,Marinette County,54143,US,TIGER/Line® dataset from the US Census Bureau,Assembly District 89,State Senate District 30,WI8,117th
53073,43.768454,-87.975773,1,place,,,,,Plymouth,WI,Sheboygan County,53073,US,TIGER/Line® dataset from the US Census Bureau,Assembly District 27,State Senate District 9,WI6,117th
53718,43.093146,-89.276619,1,place,,,,,Madison,WI,Dane County,53718,US,TIGER/Line® dataset from the US Census Bureau,Assembly District 48,State Senate District 16,WI2,117th
53901,43.53915,-89.46262,1,place,,,,,Portage,WI,Columbia County,53901,US,TIGER/Line® dataset from the US Census Bureau,Assembly District 81,State Senate District 27,WI6,117th
53228,42.967564,-88.043386,1,place,,,,,Milwaukee,WI,Milwaukee County,53228,US,TIGER/Line® dataset from the US Census Bureau,Assembly District 84,State Senate District 28,WI5,117th
54636,43.968617,-91.223484,1,place,,,,,Holmen,WI,La Crosse County,54636,US,TIGER/Line® dataset from the US Census Bureau,Assembly District 94,State Senate District 32,WI3,117th
53129,42.937765,-87.998935,1,place,,,,,Greendale,WI,Milwaukee County,53129,US,TIGER/Line® dataset from the US Census Bureau,Assembly District 82,State Senate District 28,WI1,117th
54467,44.413942,-89.565507,1,place,,,,,Plover,WI,Portage County,54467,US,TIGER/Line® dataset from the US Census Bureau,Assembly District 71,State Senate District 24,WI3,117th
54603,43.853763,-91.246238,1,place,,,,,La Crosse,WI,La Crosse County,54603,US,TIGER/Line® dataset from the US Census Bureau,Assembly District 95,State Senate District 32,WI3,117th
54241,44.15388,-87.56925,1,place,,,,,Two Rivers,WI,Manitowoc County,54241,US,TIGER/Line® dataset from the US Census Bureau,Assembly District 2,State Senate District 1,WI6,117th
53959,43.533502,-89.999636,1,place,,,,,Reedsburg,WI,Sauk County,53959,US,TIGER/Line® dataset from the US Census Bureau,Assembly District 50,State Senate District 17,WI2,117th
53963,43.63332,-88.72955,1,place,,,,,Waupun,WI,Fond Du Lac County,53963,US,TIGER/Line® dataset from the US Census Bureau,Assembly District 53,State Senate District 18,WI6,117th
54961,44.405595,-88.859107,1,place,,,,,New London,WI,Waupaca County,54961,US,TIGER/Line® dataset from the US Census Bureau,Assembly District 40,State Senate District 14,WI8,117th
53715,43.06849,-89.401708,1,place,,,,,Madison,WI,Dane County,53715,US,TIGER/Line® dataset from the US Census Bureau,Assembly District 76,State Senate District 26,WI2,117th
54409,45.160809,-89.093942,1,place,,,,,Antigo,WI,Langlade County,54409,US,TIGER/Line® dataset from the US Census Bureau,Assembly District 35,State Senate District 12,WI7,117th
53074,43.387702,-87.881232,1,place,,,,,Port Washington,WI,Ozaukee County,53074,US,TIGER/Line® dataset from the US Census Bureau,Assembly District 60,State Senate District 20,WI6,117th
53717,43.074335,-89.51989,1,place,,,,,Madison,WI,Dane County,53717,US,TIGER/Line® dataset from the US Census Bureau,Assembly District 78,State Senate District 26,WI2,117th
53558,43.0125,-89.28984,1,place,,,,,Mc Farland,WI,Dane County,53558,US,TIGER/Line® dataset from the US Census Bureau,Assembly District 47,State Senate District 16,WI2,117th
53534,42.803797,-89.101389,1,place,,,,,Edgerton,WI,Rock County,53534,US,TIGER/Line® dataset from the US Census Bureau,Assembly District 43,State Senate District 15,WI2,117th
54843,45.955223,-91.278308,1,place,,,,,Hayward,WI,Sawyer County,54843,US,TIGER/Line® dataset from the US Census Bureau,Assembly District 87,State Senate District 29,WI7,117th
53098,43.276444,-88.715408,1,place,,,,,Watertown,WI,Dodge County,53098,US,TIGER/Line® dataset from the US Census Bureau,Assembly District 37,State Senate District 13,WI5,117th
53085,43.726404,-87.853069,1,place,,,,,Sheboygan Falls,WI,Sheboygan County,53085,US,TIGER/Line® dataset from the US Census Bureau,Assembly District 26,State Senate District 9,WI6,117th
54806,46.558577,-90.738773,1,place,,,,,Ashland,WI,Ashland County,54806,US,TIGER/Line® dataset from the US Census Bureau,Assembly District 74,State Senate District 25,WI7,117th
54451,45.164705,-90.445798,1,place,,,,,Medford,WI,Taylor County,54451,US,TIGER/Line® dataset from the US Census Bureau,Assembly District 87,State Senate District 29,WI7,117th
53563,42.77556,-88.944,1,place,,,,,Milton,WI,Rock County,53563,US,TIGER/Line® dataset from the US Census Bureau,Assembly District 43,State Senate District 15,WI1,117th
53527,43.071165,-89.196996,1,place,,,,,Cottage Grove,WI,Dane County,53527,US,TIGER/Line® dataset from the US Census Bureau,Assembly District 46,State Senate District 16,WI2,117th
54971,43.8422,-88.83594,1,place,,,,,Ripon,WI,Fond Du Lac County,54971,US,TIGER/Line® dataset from the US Census Bureau,Assembly District 41,State Senate District 14,WI6,117th
53572,43.00861,-89.73846,1,place,,,,,Mount Horeb,WI,Dane County,53572,US,TIGER/Line® dataset from the US Census Bureau,Assembly District 80,State Senate District 27,WI2,117th
54615,44.295394,-90.83128,1,place,,,,,Black River Falls,WI,Jackson County,54615,US,TIGER/Line® dataset from the US Census Bureau,Assembly District 92,State Senate District 31,WI3,117th
53965,43.62748,-89.77096,1,place,,,,,Wisconsin Dells,WI,Columbia County,53965,US,TIGER/Line® dataset from the US Census Bureau,Assembly District 41,State Senate District 14,WI3,117th
53549,42.993502,-88.759793,1,place,,,,,Jefferson,WI,Jefferson County,53549,US,TIGER/Line® dataset from the US Census Bureau,Assembly District 33,State Senate District 11,WI5,117th
54482,44.53891,-89.523076,0.9,place,,,,,Stevens Point,WI,Portage County,54482,US,TIGER/Line® dataset from the US Census Bureau,Assembly District 71,State Senate District 24,WI3,117th
54942,44.286983,-88.556406,1,place,,,,,Greenville,WI,Outagamie County,54942,US,TIGER/Line® dataset from the US Census Bureau,Assembly District 55,State Senate District 19,WI8,117th
53037 and 53581,43.366148,-90.430225,0.33,place,,,,,Richland Center,WI,Richland County,53581,US,TIGER/Line® dataset from the US Census Bureau,Assembly District 49,State Senate District 17,WI3,117th
53182,42.739435,-88.083092,1,place,,,,,Union Grove,WI,Racine County,53182,US,TIGER/Line® dataset from the US Census Bureau,Assembly District 63,State Senate District 21,WI1,117th
54140,44.294746,-88.316305,1,place,,,,,Little Chute,WI,Outagamie County,54140,US,TIGER/Line® dataset from the US Census Bureau,Assembly District 5,State Senate District 2,WI8,117th
53235,42.969865,-87.873732,1,place,,,,,Saint Francis,WI,Milwaukee County,53235,US,TIGER/Line® dataset from the US Census Bureau,Assembly District 20,State Senate District 7,WI4,117th
54487,45.337814,-89.765239,1,place,,,,,Tomahawk,WI,Lincoln County,54487,US,TIGER/Line® dataset from the US Census Bureau,Assembly District 35,State Senate District 12,WI7,117th
53120,42.78529,-88.4051,1,place,,,,,East Troy,WI,Walworth County,53120,US,TIGER/Line® dataset from the US Census Bureau,Assembly District 32,State Senate District 11,WI1,117th
54162,44.67222,-88.2426,1,place,,,,,Pulaski,WI,Brown County,54162,US,TIGER/Line® dataset from the US Census Bureau,Assembly District 6,State Senate District 2,WI8,117th
53128,42.49835,-88.32815,1,place,,,,,Genoa City,WI,Walworth County,53128,US,TIGER/Line® dataset from the US Census Bureau,Assembly District 32,State Senate District 11,WI1,117th
54944,44.342058,-88.588244,1,place,,,,,Hortonville,WI,Outagamie County,54944,US,TIGER/Line® dataset from the US Census Bureau,Assembly District 5,State Senate District 2,WI8,117th
54923,43.915726,-89.027124,1,place,,,,,Berlin,WI,Green Lake County,54923,US,TIGER/Line® dataset from the US Census Bureau,Assembly District 41,State Senate District 14,WI6,117th
53205,43.053112,-87.933185,1,place,,,,,Milwaukee,WI,Milwaukee County,53205,US,TIGER/Line® dataset from the US Census Bureau,Assembly District 16,State Senate District 6,WI4,117th
53168,42.574598,-88.137535,1,place,,,,,Salem,WI,Kenosha County,53168,US,TIGER/Line® dataset from the US Census Bureau,Assembly District 61,State Senate District 21,WI1,117th
53555,43.342813,-89.557023,1,place,,,,,Lodi,WI,Columbia County,53555,US,TIGER/Line® dataset from the US Census Bureau,Assembly District 42,State Senate District 14,WI6,117th
53536,42.766359,-89.250152,1,place,,,,,Evansville,WI,Rock County,53536,US,TIGER/Line® dataset from the US Census Bureau,Assembly District 45,State Senate District 15,WI2,117th
54929,44.62053,-88.76232,1,place,,,,,Clintonville,WI,Waupaca County,54929,US,TIGER/Line® dataset from the US Census Bureau,Assembly District 6,State Senate District 2,WI8,117th
53551,43.080902,-88.913251,1,place,,,,,Lake Mills,WI,Jefferson County,53551,US,TIGER/Line® dataset from the US Census Bureau,Assembly District 38,State Senate District 13,WI5,117th
53086,43.327417,-88.260878,1,place,,,,,Slinger,WI,Washington County,53086,US,TIGER/Line® dataset from the US Census Bureau,Assembly District 58,State Senate District 20,WI5,117th
54457,44.299968,-89.920843,1,place,,,,,Nekoosa,WI,Wood County,54457,US,TIGER/Line® dataset from the US Census Bureau,Assembly District 70,State Senate District 24,WI3,117th
53040,43.499425,-88.206447,1,place,,,,,Kewaskum,WI,Washington County,53040,US,TIGER/Line® dataset from the US Census Bureau,Assembly District 59,State Senate District 20,WI5,117th
54665,43.530515,-90.991573,1,place,,,,,Viroqua,WI,Vernon County,54665,US,TIGER/Line® dataset from the US Census Bureau,Assembly District 96,State Senate District 32,WI3,117th
53146,42.969924,-88.177554,1,place,,,,,New Berlin,WI,Waukesha County,53146,US,TIGER/Line® dataset from the US Census Bureau,Assembly District 84,State Senate District 28,WI5,117th
53177,42.712962,-87.934013,1,place,,,,,Sturtevant,WI,Racine County,53177,US,TIGER/Line® dataset from the US Census Bureau,Assembly District 63,State Senate District 21,WI1,117th
53821,43.084008,-91.069064,1,place,,,,,Prairie Du Chien,WI,Crawford County,53821,US,TIGER/Line® dataset from the US Census Bureau,Assembly District 96,State Senate District 32,WI3,117th
53948,43.79719,-90.07735,1,place,,,,,Mauston,WI,Juneau County,53948,US,TIGER/Line® dataset from the US Census Bureau,Assembly District 50,State Senate District 17,WI3,117th
54001,45.348566,-92.401379,1,place,,,,,Amery,WI,Polk County,54001,US,TIGER/Line® dataset from the US Census Bureau,Assembly District 28,State Senate District 10,WI7,117th
54521,45.91718,-89.2443,1,place,,,,,Eagle River,WI,Vilas County,54521,US,TIGER/Line® dataset from the US Census Bureau,Assembly District 34,State Senate District 12,WI7,117th
54669,43.897572,-91.120198,1,place,,,,,West Salem,WI,La Crosse County,54669,US,TIGER/Line® dataset from the US Census Bureau,Assembly District 94,State Senate District 32,WI3,117th
53925,43.3569,-89.12088,1,place,,,,,Columbus,WI,Columbia County,53925,US,TIGER/Line® dataset from the US Census Bureau,Assembly District 42,State Senate District 14,WI6,117th
53014,44.020561,-88.185906,1,place,,,,,Chilton,WI,Calumet County,53014,US,TIGER/Line® dataset from the US Census Bureau,Assembly District 25,State Senate District 9,WI8,117th
54720,44.803612,-91.442253,1,place,,,,,Altoona,WI,Eau Claire County,54720,US,TIGER/Line® dataset from the US Census Bureau,Assembly District 68,State Senate District 23,WI3,117th
54165,44.51499,-88.33038,1,place,,,,,Seymour,WI,Outagamie County,54165,US,TIGER/Line® dataset from the US Census Bureau,Assembly District 5,State Senate District 2,WI8,117th
53010,43.59777,-88.27899,1,place,,,,,Campbellsport,WI,Fond Du Lac County,53010,US,TIGER/Line® dataset from the US Census Bureau,Assembly District 59,State Senate District 20,WI6,117th
53018,43.015666,-88.386519,1,place,,,,,Delafield,WI,Waukesha County,53018,US,TIGER/Line® dataset from the US Census Bureau,Assembly District 99,State Senate District 33,WI5,117th
53130,42.943614,-88.046454,1,place,,,,,Hales Corners,WI,Milwaukee County,53130,US,TIGER/Line® dataset from the US Census Bureau,Assembly District 83,State Senate District 28,WI1,117th
53181,42.523887,-88.235389,1,place,,,,,Twin Lakes,WI,Kenosha County,53181,US,TIGER/Line® dataset from the US Census Bureau,Assembly District 61,State Senate District 21,WI1,117th
54724,45.10024,-91.48877,1,place,,,,,Bloomer,WI,Chippewa County,54724,US,TIGER/Line® dataset from the US Census Bureau,Assembly District 67,State Senate District 23,WI7,117th
54155,44.4986,-88.18288,1,place,,,,,Oneida,WI,Brown County,54155,US,TIGER/Line® dataset from the US Census Bureau,Assembly District 5,State Senate District 2,WI8,117th
54495,44.388082,-89.922751,1,place,,,,,Wisconsin Rapids,WI,Wood County,54495,US,TIGER/Line® dataset from the US Census Bureau,Assembly District 70,State Senate District 24,WI3,117th
54217,44.541977,-87.670551,1,place,,,,,Luxemburg,WI,Kewaunee County,54217,US,TIGER/Line® dataset from the US Census Bureau,Assembly District 1,State Senate District 1,WI8,117th
54025,45.12441,-92.67354,1,place,,,,,Somerset,WI,St. Croix County,54025,US,TIGER/Line® dataset from the US Census Bureau,Assembly District 28,State Senate District 10,WI7,117th
53179,42.517168,-88.138001,1,place,,,,,Trevor,WI,Kenosha County,53179,US,TIGER/Line® dataset from the US Census Bureau,Assembly District 61,State Senate District 21,WI1,117th
53118,42.951536,-88.444097,1,place,,,,,Dousman,WI,Waukesha County,53118,US,TIGER/Line® dataset from the US Census Bureau,Assembly District 99,State Senate District 33,WI1,117th
54755,44.48773,-91.68068,1,place,,,,,Mondovi,WI,Buffalo County,54755,US,TIGER/Line® dataset from the US Census Bureau,Assembly District 92,State Senate District 31,WI3,117th
53533,43.007063,-90.192522,1,place,,,,,Dodgeville,WI,Iowa County,53533,US,TIGER/Line® dataset from the US Census Bureau,Assembly District 51,State Senate District 17,WI2,117th
54963,44.050782,-88.754887,1,place,,,,,Omro,WI,Winnebago County,54963,US,TIGER/Line® dataset from the US Census Bureau,Assembly District 53,State Senate District 18,WI6,117th
54153,44.88721,-87.86455,1,place,,,,,Oconto,WI,Oconto County,54153,US,TIGER/Line® dataset from the US Census Bureau,Assembly District 89,State Senate District 30,WI8,117th
54020,45.283783,-92.535618,1,place,,,,,Osceola,WI,Polk County,54020,US,TIGER/Line® dataset from the US Census Bureau,Assembly District 28,State Senate District 10,WI7,117th
54982,44.075321,-89.271177,1,place,,,,,Wautoma,WI,Waushara County,54982,US,TIGER/Line® dataset from the US Census Bureau,Assembly District 72,State Senate District 24,WI6,117th
53126,42.785553,-87.995471,1,place,,,,,Franksville,WI,Racine County,53126,US,TIGER/Line® dataset from the US Census Bureau,Assembly District 62,State Senate District 21,WI1,117th
54011,44.740142,-92.548289,1,place,,,,,Ellsworth,WI,Pierce County,54011,US,TIGER/Line® dataset from the US Census Bureau,Assembly District 93,State Senate District 31,WI3,117th
53050,43.483463,-88.545925,1,place,,,,,Mayville,WI,Dodge County,53050,US,TIGER/Line® dataset from the US Census Bureau,Assembly District 39,State Senate District 13,WI6,117th
53954,43.516772,-89.31459,1,place,,,,,Pardeeville,WI,Columbia County,53954,US,TIGER/Line® dataset from the US Census Bureau,Assembly District 42,State Senate District 14,WI6,117th
54021,44.74886,-92.80215,1,place,,,,,Prescott,WI,Pierce County,54021,US,TIGER/Line® dataset from the US Census Bureau,Assembly District 93,State Senate District 31,WI3,117th
54801,45.82245,-91.88934,1,place,,,,,Spooner,WI,Washburn County,54801,US,TIGER/Line® dataset from the US Census Bureau,Assembly District 73,State Senate District 25,WI7,117th
53042,43.96317,-87.955059,1,place,,,,,Kiel,WI,Manitowoc County,53042,US,TIGER/Line® dataset from the US Census Bureau,Assembly District 27,State Senate District 9,WI6,117th
53520,42.61834,-89.37623,1,place,,,,,Brodhead,WI,Green County,53520,US,TIGER/Line® dataset from the US Census Bureau,Assembly District 45,State Senate District 15,WI2,117th
54208,44.34777,-87.82732,1,place,,,,,Denmark,WI,Brown County,54208,US,TIGER/Line® dataset from the US Census Bureau,Assembly District 2,State Senate District 1,WI8,117th
53578,43.28693,-89.72401,1,place,,,,,Prairie Du Sac,WI,Sauk County,53578,US,TIGER/Line® dataset from the US Census Bureau,Assembly District 81,State Senate District 27,WI2,117th
54002,44.96663,-92.37436,1,place,,,,,Baldwin,WI,St. Croix County,54002,US,TIGER/Line® dataset from the US Census Bureau,Assembly District 29,State Senate District 10,WI7,117th
53097,43.242049,-88.009823,1,place,,,,,Mequon,WI,Ozaukee County,53097,US,TIGER/Line® dataset from the US Census Bureau,Assembly District 24,State Senate District 8,WI6,117th
53559,43.173921,-89.091315,1,place,,,,,Marshall,WI,Dane County,53559,US,TIGER/Line® dataset from the US Census Bureau,Assembly District 38,State Senate District 13,WI2,117th
54136,44.27221,-88.339,1,place,,,,,Kimberly,WI,Outagamie County,54136,US,TIGER/Line® dataset from the US Census Bureau,Assembly District 3,State Senate District 1,WI8,117th
53528,43.11444,-89.65568,1,place,,,,,Cross Plains,WI,Dane County,53528,US,TIGER/Line® dataset from the US Census Bureau,Assembly District 79,State Senate District 27,WI2,117th
54216,44.438185,-87.592719,1,place,,,,,Kewaunee,WI,Kewaunee County,54216,US,TIGER/Line® dataset from the US Census Bureau,Assembly District 1,State Senate District 1,WI8,117th
54728,45.31413,-91.651,1,place,,,,,Chetek,WI,Barron County,54728,US,TIGER/Line® dataset from the US Census Bureau,Assembly District 75,State Senate District 25,WI7,117th
53122,43.048211,-88.087888,1,place,,,,,Elm Grove,WI,Waukesha County,53122,US,TIGER/Line® dataset from the US Census Bureau,Assembly District 13,State Senate District 5,WI5,117th
54768,44.95997,-90.93708,1,place,,,,,Stanley,WI,Chippewa County,54768,US,TIGER/Line® dataset from the US Census Bureau,Assembly District 68,State Senate District 23,WI7,117th
53949,43.812581,-89.372011,1,place,,,,,Montello,WI,Marquette County,53949,US,TIGER/Line® dataset from the US Census Bureau,Assembly District 41,State Senate District 14,WI6,117th
53706,43.077755,-89.413326,1,place,,,,,Madison,WI,Dane County,53706,US,TIGER/Line® dataset from the US Census Bureau,Assembly District 77,State Senate District 26,WI2,117th
53583,43.251127,-89.89584,1,place,,,,,Sauk City,WI,Sauk County,53583,US,TIGER/Line® dataset from the US Census Bureau,Assembly District 81,State Senate District 27,WI2,117th
54456,44.688149,-90.669407,1,place,,,,,Neillsville,WI,Clark County,54456,US,TIGER/Line® dataset from the US Census Bureau,Assembly District 68,State Senate District 23,WI7,117th
53119,42.929074,-88.47489,1,place,,,,,Eagle,WI,Waukesha County,53119,US,TIGER/Line® dataset from the US Census Bureau,Assembly District 33,State Senate District 11,WI1,117th
53813,42.864155,-90.684965,1,place,,,,,Lancaster,WI,Grant County,53813,US,TIGER/Line® dataset from the US Census Bureau,Assembly District 49,State Senate District 17,WI3,117th
54157,45.05443,-87.74927,1,place,,,,,Peshtigo,WI,Marinette County,54157,US,TIGER/Line® dataset from the US Census Bureau,Assembly District 89,State Senate District 30,WI8,117th
54848,45.490835,-91.0943,1,place,,,,,Ladysmith,WI,Rusk County,54848,US,TIGER/Line® dataset from the US Census Bureau,Assembly District 87,State Senate District 29,WI7,117th
53508,42.903829,-89.586339,1,place,,,,,Belleville,WI,Dane County,53508,US,TIGER/Line® dataset from the US Census Bureau,Assembly District 80,State Senate District 27,WI2,117th
53080,43.38167,-87.94065,1,place,,,,,Saukville,WI,Ozaukee County,53080,US,TIGER/Line® dataset from the US Census Bureau,Assembly District 60,State Senate District 20,WI6,117th
53955,43.433273,-89.394518,1,place,,,,,Poynette,WI,Columbia County,53955,US,TIGER/Line® dataset from the US Census Bureau,Assembly District 42,State Senate District 14,WI6,117th
54154,44.901999,-88.125829,1,place,,,,,Oconto Falls,WI,Oconto County,54154,US,TIGER/Line® dataset from the US Census Bureau,Assembly District 36,State Senate District 12,WI8,117th
53726,43.06956,-89.423861,1,place,,,,,Madison,WI,Dane County,53726,US,TIGER/Line® dataset from the US Census Bureau,Assembly District 77,State Senate District 26,WI2,117th
53017,43.209445,-88.241501,1,place,,,,,Colgate,WI,Washington County,53017,US,TIGER/Line® dataset from the US Census Bureau,Assembly District 22,State Senate District 8,WI5,117th
54812,45.40135,-91.84906,1,place,,,,,Barron,WI,Barron County,54812,US,TIGER/Line® dataset from the US Census Bureau,Assembly District 75,State Senate District 25,WI7,117th
53950,43.911145,-90.165918,1,place,,,,,New Lisbon,WI,Juneau County,53950,US,TIGER/Line® dataset from the US Census Bureau,Assembly District 50,State Senate District 17,WI3,117th
53104,42.553518,-88.028986,1,place,,,,,Bristol,WI,Kenosha County,53104,US,TIGER/Line® dataset from the US Census Bureau,Assembly District 61,State Senate District 21,WI1,117th
54110,44.163209,-88.133876,1,place,,,,,Brillion,WI,Calumet County,54110,US,TIGER/Line® dataset from the US Census Bureau,Assembly District 3,State Senate District 1,WI8,117th
54739,44.87885,-91.68711,1,place,,,,,Elk Mound,WI,Dunn County,54739,US,TIGER/Line® dataset from the US Census Bureau,Assembly District 67,State Senate District 23,WI3,117th
54986,44.124886,-88.745129,1,place,,,,,Winneconne,WI,Winnebago County,54986,US,TIGER/Line® dataset from the US Census Bureau,Assembly District 56,State Senate District 19,WI8,117th
54114,45.261661,-88.078001,1,place,,,,,Crivitz,WI,Marinette County,54114,US,TIGER/Line® dataset from the US Census Bureau,Assembly District 36,State Senate District 12,WI8,117th
54106,44.470235,-88.454719,1,place,,,,,Black Creek,WI,Outagamie County,54106,US,TIGER/Line® dataset from the US Census Bureau,Assembly District 5,State Senate District 2,WI8,117th
54411,44.982348,-90.007765,1,place,,,,,Athens,WI,Marathon County,54411,US,TIGER/Line® dataset from the US Census Bureau,Assembly District 87,State Senate District 29,WI7,117th
53523,42.987505,-89.080742,1,place,,,,,Cambridge,WI,Dane County,53523,US,TIGER/Line® dataset from the US Census Bureau,Assembly District 38,State Senate District 13,WI2,117th
54201,44.596017,-87.540266,1,place,,,,,Algoma,WI,Kewaunee County,54201,US,TIGER/Line® dataset from the US Census Bureau,Assembly District 1,State Senate District 1,WI8,117th
53805,43.13443,-90.7054,1,place,,,,,Boscobel,WI,Grant County,53805,US,TIGER/Line® dataset from the US Census Bureau,Assembly District 49,State Senate District 17,WI3,117th
54484,44.809072,-90.030674,1,place,,,,,Stratford,WI,Marathon County,54484,US,TIGER/Line® dataset from the US Census Bureau,Assembly District 69,State Senate District 23,WI7,117th
54568,45.859618,-89.653705,1,place,,,,,Woodruff,WI,Oneida County,54568,US,TIGER/Line® dataset from the US Census Bureau,Assembly District 34,State Senate District 12,WI7,117th
54829,45.53218,-92.01935,1,place,,,,,Cumberland,WI,Barron County,54829,US,TIGER/Line® dataset from the US Census Bureau,Assembly District 75,State Senate District 25,WI7,117th
53594,43.18388,-88.98844,1,place,,,,,Waterloo,WI,Jefferson County,53594,US,TIGER/Line® dataset from the US Census Bureau,Assembly District 37,State Senate District 13,WI5,117th
53807,42.60555,-90.42985,1,place,,,,,Cuba City,WI,Grant County,53807,US,TIGER/Line® dataset from the US Census Bureau,Assembly District 49,State Senate District 17,WI3,117th
54727,44.94802,-91.1507,1,place,,,,,Cadott,WI,Chippewa County,54727,US,TIGER/Line® dataset from the US Census Bureau,Assembly District 67,State Senate District 23,WI3,117th
54229,44.571416,-87.833306,1,place,,,,,New Franken,WI,Brown County,54229,US,TIGER/Line® dataset from the US Census Bureau,Assembly District 1,State Senate District 1,WI8,117th
54612,44.251711,-91.387699,1,place,,,,,Arcadia,WI,Trempealeau County,54612,US,TIGER/Line® dataset from the US Census Bureau,Assembly District 92,State Senate District 31,WI3,117th
54742,44.762892,-91.306304,1,place,,,,,Fall Creek,WI,Eau Claire County,54742,US,TIGER/Line® dataset from the US Census Bureau,Assembly District 68,State Senate District 23,WI3,117th
53061,43.949886,-88.101954,1,place,,,,,New Holstein,WI,Calumet County,53061,US,TIGER/Line® dataset from the US Census Bureau,Assembly District 59,State Senate District 20,WI8,117th
53070,43.620857,-87.810616,1,place,,,,,Oostburg,WI,Sheboygan County,53070,US,TIGER/Line® dataset from the US Census Bureau,Assembly District 26,State Senate District 9,WI6,117th
54730,45.037889,-91.888046,1,place,,,,,Colfax,WI,Dunn County,54730,US,TIGER/Line® dataset from the US Census Bureau,Assembly District 67,State Senate District 23,WI3,117th
54548,45.827583,-89.824294,1,place,,,,,Minocqua,WI,Oneida County,54548,US,TIGER/Line® dataset from the US Census Bureau,Assembly District 34,State Senate District 12,WI7,117th
53021,43.477015,-87.961162,1,place,,,,,Fredonia,WI,Ozaukee County,53021,US,TIGER/Line® dataset from the US Census Bureau,Assembly District 60,State Senate District 20,WI6,117th
53032,43.422045,-88.624268,1,place,,,,,Horicon,WI,Dodge County,53032,US,TIGER/Line® dataset from the US Census Bureau,Assembly District 39,State Senate District 13,WI5,117th
54667,43.653701,-90.841723,1,place,,,,,Westby,WI,Vernon County,54667,US,TIGER/Line® dataset from the US Census Bureau,Assembly District 96,State Senate District 32,WI3,117th
54555,45.724607,-90.370984,1,place,,,,,Phillips,WI,Price County,54555,US,TIGER/Line® dataset from the US Census Bureau,Assembly District 74,State Senate District 25,WI7,117th
54024,45.509689,-92.611733,1,place,,,,,Saint Croix Falls,WI,Polk County,54024,US,TIGER/Line® dataset from the US Census Bureau,Assembly District 28,State Senate District 10,WI7,117th
54230,44.142382,-87.904684,1,place,,,,,Reedsville,WI,Manitowoc County,54230,US,TIGER/Line® dataset from the US Census Bureau,Assembly District 25,State Senate District 9,WI6,117th
53033,43.23667,-88.2212,1,place,,,,,Hubertus,WI,Washington County,53033,US,TIGER/Line® dataset from the US Census Bureau,Assembly District 58,State Senate District 20,WI5,117th
53565,42.86,-90.17985,1,place,,,,,Mineral Point,WI,Iowa County,53565,US,TIGER/Line® dataset from the US Census Bureau,Assembly District 51,State Senate District 17,WI2,117th
53531,43.057662,-89.091798,1,place,,,,,Deerfield,WI,Dane County,53531,US,TIGER/Line® dataset from the US Census Bureau,Assembly District 38,State Senate District 13,WI2,117th
53039,43.372221,-88.710157,1,place,,,,,Juneau,WI,Dodge County,53039,US,TIGER/Line® dataset from the US Census Bureau,Assembly District 39,State Senate District 13,WI5,117th
54822,45.40857,-91.74406,1,place,,,,,Cameron,WI,Barron County,54822,US,TIGER/Line® dataset from the US Census Bureau,Assembly District 75,State Senate District 25,WI7,117th
54426,44.904647,-90.012469,1,place,,,,,Edgar,WI,Marathon County,54426,US,TIGER/Line® dataset from the US Census Bureau,Assembly District 69,State Senate District 23,WI7,117th
54758,44.57218,-91.22738,1,place,,,,,Osseo,WI,Trempealeau County,54758,US,TIGER/Line® dataset from the US Census Bureau,Assembly District 68,State Senate District 23,WI3,117th
54634,43.6522,-90.34402,1,place,,,,,Hillsboro,WI,Vernon County,54634,US,TIGER/Line® dataset from the US Census Bureau,Assembly District 96,State Senate District 32,WI3,117th
53530,42.69112,-90.134781,1,place,,,,,Darlington,WI,Lafayette County,53530,US,TIGER/Line® dataset from the US Census Bureau,Assembly District 51,State Senate District 17,WI2,117th
53933,43.568169,-88.895723,1,place,,,,,Fox Lake,WI,Dodge County,53933,US,TIGER/Line® dataset from the US Census Bureau,Assembly District 42,State Senate District 14,WI6,117th
54983,44.332498,-88.922821,1,place,,,,,Weyauwega,WI,Waupaca County,54983,US,TIGER/Line® dataset from the US Census Bureau,Assembly District 40,State Senate District 14,WI8,117th
53076,43.2727,-88.206716,1,place,,,,,Richfield,WI,Washington County,53076,US,TIGER/Line® dataset from the US Census Bureau,Assembly District 58,State Senate District 20,WI5,117th
54173,44.63194,-88.03927,1,place,,,,,Suamico,WI,Brown County,54173,US,TIGER/Line® dataset from the US Census Bureau,Assembly District 89,State Senate District 30,WI8,117th
54448,44.875437,-89.80077,1,place,,,,,Marathon,WI,Marathon County,54448,US,TIGER/Line® dataset from the US Census Bureau,Assembly District 86,State Senate District 29,WI7,117th
54840,45.795342,-92.693513,1,place,,,,,Grantsburg,WI,Burnett County,54840,US,TIGER/Line® dataset from the US Census Bureau,Assembly District 28,State Senate District 10,WI7,117th
53934,43.997966,-89.777051,1,place,,,,,Friendship,WI,Adams County,53934,US,TIGER/Line® dataset from the US Census Bureau,Assembly District 72,State Senate District 24,WI3,117th
54771,44.894112,-90.790684,1,place,,,,,Thorp,WI,Clark County,54771,US,TIGER/Line® dataset from the US Census Bureau,Assembly District 68,State Senate District 23,WI7,117th
54520,45.511846,-88.891846,1,place,,,,,Crandon,WI,Forest County,54520,US,TIGER/Line® dataset from the US Census Bureau,Assembly District 36,State Senate District 12,WI7,117th
53038,43.07195,-88.79344,1,place,,,,,Johnson Creek,WI,Jefferson County,53038,US,TIGER/Line® dataset from the US Census Bureau,Assembly District 38,State Senate District 13,WI5,117th
53809,42.9836,-90.6554,1,place,,,,,Fennimore,WI,Grant County,53809,US,TIGER/Line® dataset from the US Census Bureau,Assembly District 49,State Senate District 17,WI3,117th
54023,44.974357,-92.59762,1,place,,,,,Roberts,WI,St. Croix County,54023,US,TIGER/Line® dataset from the US Census Bureau,Assembly District 30,State Senate District 10,WI7,117th
53184,42.561543,-88.597153,1,place,,,,,Walworth,WI,Walworth County,53184,US,TIGER/Line® dataset from the US Census Bureau,Assembly District 31,State Senate District 11,WI1,117th
54736,44.640224,-91.831869,1,place,,,,,Durand,WI,Pepin County,54736,US,TIGER/Line® dataset from the US Census Bureau,Assembly District 93,State Senate District 31,WI3,117th
54630,44.094809,-91.339528,1,place,,,,,Galesville,WI,Trempealeau County,54630,US,TIGER/Line® dataset from the US Census Bureau,Assembly District 92,State Senate District 31,WI3,117th
54646,44.022637,-90.130552,1,place,,,,,Necedah,WI,Juneau County,54646,US,TIGER/Line® dataset from the US Census Bureau,Assembly District 50,State Senate District 17,WI7,117th
54853,45.57607,-92.4827,1,place,,,,,Luck,WI,Polk County,54853,US,TIGER/Line® dataset from the US Census Bureau,Assembly District 28,State Senate District 10,WI7,117th
54940,44.272779,-88.833282,1,place,,,,,Fremont,WI,Waupaca County,54940,US,TIGER/Line® dataset from the US Census Bureau,Assembly District 40,State Senate District 14,WI6,117th
53946,43.723578,-89.065361,1,place,,,,,Markesan,WI,Green Lake County,53946,US,TIGER/Line® dataset from the US Census Bureau,Assembly District 41,State Senate District 14,WI6,117th
54552,45.93333,-90.45,1,place,,,,,Park Falls,WI,Price County,54552,US,TIGER/Line® dataset from the US Census Bureau,Assembly District 74,State Senate District 25,WI7,117th
53525,42.56239,-88.859993,1,place,,,,,Clinton,WI,Rock County,53525,US,TIGER/Line® dataset from the US Census Bureau,Assembly District 31,State Senate District 11,WI1,117th
53588,43.230001,-90.040066,1,place,,,,,Spring Green,WI,Sauk County,53588,US,TIGER/Line® dataset from the US Census Bureau,Assembly District 51,State Senate District 17,WI2,117th
54479,44.75774,-90.2968,1,place,,,,,Spencer,WI,Marathon County,54479,US,TIGER/Line® dataset from the US Census Bureau,Assembly District 69,State Senate District 23,WI7,117th
54874,46.568809,-91.935156,1,place,,,,,South Range,WI,Douglas County,54874,US,TIGER/Line® dataset from the US Census Bureau,Assembly District 73,State Senate District 25,WI7,117th
54619,43.74191,-90.7793,1,place,,,,,Cashton,WI,Monroe County,54619,US,TIGER/Line® dataset from the US Census Bureau,Assembly District 96,State Senate District 32,WI3,117th
54474,44.88719,-89.62012,1,place,,,,,Rothschild,WI,Marathon County,54474,US,TIGER/Line® dataset from the US Census Bureau,Assembly District 85,State Senate District 29,WI7,117th
54126,44.347365,-88.037736,1,place,,,,,Greenleaf,WI,Brown County,54126,US,TIGER/Line® dataset from the US Census Bureau,Assembly District 2,State Senate District 1,WI8,117th
54722,44.726811,-91.212598,1,place,,,,,Augusta,WI,Eau Claire County,54722,US,TIGER/Line® dataset from the US Census Bureau,Assembly District 68,State Senate District 23,WI3,117th
53574,42.816273,-89.651287,1,place,,,,,New Glarus,WI,Green County,53574,US,TIGER/Line® dataset from the US Census Bureau,Assembly District 80,State Senate District 27,WI2,117th
54970,44.04192,-89.09845,1,place,,,,,Redgranite,WI,Waushara County,54970,US,TIGER/Line® dataset from the US Census Bureau,Assembly District 40,State Senate District 14,WI6,117th
53020,43.827363,-87.9915,1,place,,,,,Elkhart Lake,WI,Sheboygan County,53020,US,TIGER/Line® dataset from the US Census Bureau,Assembly District 27,State Senate District 9,WI6,117th
54837,45.65912,-92.46714,1,place,,,,,Frederic,WI,Polk County,54837,US,TIGER/Line® dataset from the US Census Bureau,Assembly District 28,State Senate District 10,WI7,117th
53521,42.85361,-89.3704,1,place,,,,,Brooklyn,WI,Green County,53521,US,TIGER/Line® dataset from the US Census Bureau,Assembly District 80,State Senate District 27,WI2,117th
54661,44.076755,-91.460168,1,place,,,,,Trempealeau,WI,Trempealeau County,54661,US,TIGER/Line® dataset from the US Census Bureau,Assembly District 92,State Senate District 31,WI3,117th
54893,45.869606,-92.30286,1,place,,,,,Webster,WI,Burnett County,54893,US,TIGER/Line® dataset from the US Census Bureau,Assembly District 28,State Senate District 10,WI7,117th
53560,43.190983,-89.729261,1,place,,,,,Mazomanie,WI,Dane County,53560,US,TIGER/Line® dataset from the US Census Bureau,Assembly District 81,State Senate District 27,WI2,117th
54015,44.966939,-92.456512,1,place,,,,,Hammond,WI,St. Croix County,54015,US,TIGER/Line® dataset from the US Census Bureau,Assembly District 29,State Senate District 10,WI7,117th
54171,44.726641,-88.121792,1,place,,,,,Sobieski,WI,Oconto County,54171,US,TIGER/Line® dataset from the US Census Bureau,Assembly District 89,State Senate District 30,WI8,117th
54421,44.879977,-90.384734,1,place,,,,,Colby,WI,Clark County,54421,US,TIGER/Line® dataset from the US Census Bureau,Assembly District 69,State Senate District 23,WI7,117th
53103,42.882441,-88.205514,1,place,,,,,Big Bend,WI,Waukesha County,53103,US,TIGER/Line® dataset from the US Census Bureau,Assembly District 83,State Senate District 28,WI1,117th
54107,44.699153,-88.454312,1,place,,,,,Bonduel,WI,Shawano County,54107,US,TIGER/Line® dataset from the US Census Bureau,Assembly District 6,State Senate District 2,WI8,117th
53964,43.848698,-89.478459,1,place,,,,,Westfield,WI,Marquette County,53964,US,TIGER/Line® dataset from the US Census Bureau,Assembly District 41,State Senate District 14,WI6,117th
54767,44.781928,-92.283761,1,place,,,,,Spring Valley,WI,Pierce County,54767,US,TIGER/Line® dataset from the US Census Bureau,Assembly District 93,State Senate District 31,WI3,117th
54113,44.26582,-88.31427,1,place,,,,,Combined Locks,WI,Outagamie County,54113,US,TIGER/Line® dataset from the US Census Bureau,Assembly District 3,State Senate District 1,WI8,117th
54170,44.482935,-88.589547,1,place,,,,,Shiocton,WI,Outagamie County,54170,US,TIGER/Line® dataset from the US Census Bureau,Assembly District 6,State Senate District 2,WI8,117th
54757,45.20413,-91.55822,1,place,,,,,New Auburn,WI,Chippewa County,54757,US,TIGER/Line® dataset from the US Census Bureau,Assembly District 67,State Senate District 23,WI7,117th
54414,44.9333,-89.20956,1,place,,,,,Birnamwood,WI,Shawano County,54414,US,TIGER/Line® dataset from the US Census Bureau,Assembly District 35,State Senate District 12,WI8,117th
54180,44.32582,-88.16288,1,place,,,,,Wrightstown,WI,Brown County,54180,US,TIGER/Line® dataset from the US Census Bureau,Assembly District 2,State Senate District 1,WI8,117th
53960,43.398335,-89.250177,1,place,,,,,Rio,WI,Columbia County,53960,US,TIGER/Line® dataset from the US Census Bureau,Assembly District 42,State Senate District 14,WI6,117th
54124,44.88999,-88.30732,1,place,,,,,Gillett,WI,Oconto County,54124,US,TIGER/Line® dataset from the US Census Bureau,Assembly District 36,State Senate District 12,WI8,117th
54773,44.443778,-91.285758,1,place,,,,,Whitehall,WI,Trempealeau County,54773,US,TIGER/Line® dataset from the US Census Bureau,Assembly District 92,State Senate District 31,WI3,117th
54406,44.393087,-89.335313,1,place,,,,,Amherst,WI,Portage County,54406,US,TIGER/Line® dataset from the US Census Bureau,Assembly District 71,State Senate District 24,WI3,117th
53108,42.803697,-87.930936,1,place,,,,,Caledonia,WI,Racine County,53108,US,TIGER/Line® dataset from the US Census Bureau,Assembly District 62,State Senate District 21,WI1,117th
54891,46.697289,-90.904151,1,place,,,,,Washburn,WI,Bayfield County,54891,US,TIGER/Line® dataset from the US Census Bureau,Assembly District 74,State Senate District 25,WI7,117th
54949,44.488057,-88.926954,1,place,,,,,Manawa,WI,Waupaca County,54949,US,TIGER/Line® dataset from the US Census Bureau,Assembly District 40,State Senate District 14,WI8,117th
54013,45.060365,-92.248403,1,place,,,,,Glenwood City,WI,St. Croix County,54013,US,TIGER/Line® dataset from the US Census Bureau,Assembly District 29,State Senate District 10,WI7,117th
53910,43.892066,-89.827509,1,place,,,,,Adams,WI,Adams County,53910,US,TIGER/Line® dataset from the US Census Bureau,Assembly District 41,State Senate District 14,WI3,117th
54945,44.572209,-89.071142,1,place,,,,,Iola,WI,Waupaca County,54945,US,TIGER/Line® dataset from the US Census Bureau,Assembly District 40,State Senate District 14,WI8,117th
53004,43.499631,-87.918042,1,place,,,,,Belgium,WI,Ozaukee County,53004,US,TIGER/Line® dataset from the US Census Bureau,Assembly District 60,State Senate District 20,WI6,117th
54135,44.88646,-88.575133,1,place,,,,,Keshena,WI,Menominee County,54135,US,TIGER/Line® dataset from the US Census Bureau,Assembly District 36,State Senate District 12,WI8,117th
53013,43.590548,-87.85532,1,place,,,,,Cedar Grove,WI,Sheboygan County,53013,US,TIGER/Line® dataset from the US Census Bureau,Assembly District 26,State Senate District 9,WI6,117th
53048,43.59138,-88.44371,1,place,,,,,Lomira,WI,Dodge County,53048,US,TIGER/Line® dataset from the US Census Bureau,Assembly District 39,State Senate District 13,WI6,117th
53058,43.109127,-88.40248,1,place,,,,,Nashotah,WI,Waukesha County,53058,US,TIGER/Line® dataset from the US Census Bureau,Assembly District 99,State Senate District 33,WI5,117th
53811,42.543893,-90.536322,1,place,,,,,Hazel Green,WI,Grant County,53811,US,TIGER/Line® dataset from the US Census Bureau,Assembly District 49,State Senate District 17,WI3,117th
54738,44.5758,-91.47016,1,place,,,,,Eleva,WI,Trempealeau County,54738,US,TIGER/Line® dataset from the US Census Bureau,Assembly District 92,State Senate District 31,WI3,117th
53075,43.582924,-88.000555,1,place,,,,,Random Lake,WI,Sheboygan County,53075,US,TIGER/Line® dataset from the US Census Bureau,Assembly District 26,State Senate District 9,WI6,117th
54151,45.77135,-87.99485,1,place,,,,,Niagara,WI,Marinette County,54151,US,TIGER/Line® dataset from the US Census Bureau,Assembly District 36,State Senate District 12,WI8,117th
53956,43.534002,-88.946714,1,place,,,,,Randolph,WI,Dodge County,53956,US,TIGER/Line® dataset from the US Census Bureau,Assembly District 42,State Senate District 14,WI6,117th
54139,44.9511,-88.04677,1,place,,,,,Lena,WI,Oconto County,54139,US,TIGER/Line® dataset from the US Census Bureau,Assembly District 36,State Senate District 12,WI8,117th
53952,43.78137,-89.57262,1,place,,,,,Oxford,WI,Marquette County,53952,US,TIGER/Line® dataset from the US Census Bureau,Assembly District 41,State Senate District 14,WI3,117th
53941,43.5822,-90.12818,1,place,,,,,La Valle,WI,Sauk County,53941,US,TIGER/Line® dataset from the US Census Bureau,Assembly District 50,State Senate District 17,WI2,117th
54984,44.168882,-89.223228,1,place,,,,,Wild Rose,WI,Waushara County,54984,US,TIGER/Line® dataset from the US Census Bureau,Assembly District 40,State Senate District 14,WI6,117th
53573,43.1234,-90.488423,1,place,,,,,Muscoda,WI,Grant County,53573,US,TIGER/Line® dataset from the US Census Bureau,Assembly District 49,State Senate District 17,WI3,117th
54005,45.25191,-92.2713,1,place,,,,,Clear Lake,WI,Polk County,54005,US,TIGER/Line® dataset from the US Census Bureau,Assembly District 75,State Senate District 25,WI7,117th
54446,44.73691,-90.49597,1,place,,,,,Loyal,WI,Clark County,54446,US,TIGER/Line® dataset from the US Census Bureau,Assembly District 69,State Senate District 23,WI7,117th
54405,44.94636,-90.31597,1,place,,,,,Abbotsford,WI,Marathon County,54405,US,TIGER/Line® dataset from the US Census Bureau,Assembly District 69,State Senate District 23,WI7,117th
54437,44.77024,-90.59931,1,place,,,,,Greenwood,WI,Clark County,54437,US,TIGER/Line® dataset from the US Census Bureau,Assembly District 68,State Senate District 23,WI7,117th
54129,44.146516,-88.195124,1,place,,,,,Hilbert,WI,Calumet County,54129,US,TIGER/Line® dataset from the US Census Bureau,Assembly District 3,State Senate District 1,WI8,117th
54121,45.845525,-88.284254,1,place,,,,,Florence,WI,Florence County,54121,US,TIGER/Line® dataset from the US Census Bureau,Assembly District 34,State Senate District 12,WI7,117th
54174,45.111843,-88.418694,1,place,,,,,Suring,WI,Oconto County,54174,US,TIGER/Line® dataset from the US Census Bureau,Assembly District 36,State Senate District 12,WI8,117th
54871,45.73939,-91.92545,1,place,,,,,Shell Lake,WI,Washburn County,54871,US,TIGER/Line® dataset from the US Census Bureau,Assembly District 75,State Senate District 25,WI7,117th
53036,43.147748,-88.588628,1,place,,,,,Ixonia,WI,Jefferson County,53036,US,TIGER/Line® dataset from the US Census Bureau,Assembly District 37,State Senate District 13,WI5,117th
54732,45.125153,-91.170922,1,place,,,,,Cornell,WI,Chippewa County,54732,US,TIGER/Line® dataset from the US Census Bureau,Assembly District 67,State Senate District 23,WI7,117th
54499,44.8272,-89.16956,1,place,,,,,Wittenberg,WI,Shawano County,54499,US,TIGER/Line® dataset from the US Census Bureau,Assembly District 6,State Senate District 2,WI8,117th
53156,42.893937,-88.59712,1,place,,,,,Palmyra,WI,Jefferson County,53156,US,TIGER/Line® dataset from the US Census Bureau,Assembly District 33,State Senate District 11,WI5,117th
54440,44.88747,-89.33873,1,place,,,,,Hatley,WI,Marathon County,54440,US,TIGER/Line® dataset from the US Census Bureau,Assembly District 85,State Senate District 29,WI7,117th
54538,45.9696,-89.89948,1,place,,,,,Lac Du Flambeau,WI,Vilas County,54538,US,TIGER/Line® dataset from the US Census Bureau,Assembly District 74,State Senate District 25,WI7,117th
53049,43.875302,-88.287108,1,place,,,,,Malone,WI,Fond Du Lac County,53049,US,TIGER/Line® dataset from the US Census Bureau,Assembly District 52,State Senate District 18,WI6,117th
53183,43.003573,-88.376916,1,place,,,,,Wales,WI,Waukesha County,53183,US,TIGER/Line® dataset from the US Census Bureau,Assembly District 99,State Senate District 33,WI1,117th
54873,46.417261,-91.810992,1,place,,,,,Solon Springs,WI,Douglas County,54873,US,TIGER/Line® dataset from the US Census Bureau,Assembly District 73,State Senate District 25,WI7,117th
53114,42.60168,-88.7076,1,place,,,,,Darien,WI,Walworth County,53114,US,TIGER/Line® dataset from the US Census Bureau,Assembly District 31,State Senate District 11,WI1,117th
54725,45.075804,-92.013036,1,place,,,,,Boyceville,WI,Dunn County,54725,US,TIGER/Line® dataset from the US Census Bureau,Assembly District 67,State Senate District 23,WI3,117th
53191,42.57807,-88.54093,1,place,,,,,Williams Bay,WI,Walworth County,53191,US,TIGER/Line® dataset from the US Census Bureau,Assembly District 31,State Senate District 11,WI1,117th
54830,45.972603,-92.292996,1,place,,,,,Danbury,WI,Burnett County,54830,US,TIGER/Line® dataset from the US Census Bureau,Assembly District 73,State Senate District 25,WI7,117th
54161,45.117544,-87.977136,1,place,,,,,Pound,WI,Marinette County,54161,US,TIGER/Line® dataset from the US Census Bureau,Assembly District 36,State Senate District 12,WI8,117th
54666,44.13107,-90.49985,1,place,,,,,Warrens,WI,Monroe County,54666,US,TIGER/Line® dataset from the US Census Bureau,Assembly District 70,State Senate District 24,WI7,117th
54177,45.383307,-87.876231,1,place,,,,,Wausaukee,WI,Marinette County,54177,US,TIGER/Line® dataset from the US Census Bureau,Assembly District 36,State Senate District 12,WI8,117th
54169,44.1736,-88.25983,1,place,,,,,Sherwood,WI,Calumet County,54169,US,TIGER/Line® dataset from the US Census Bureau,Assembly District 3,State Senate District 1,WI8,117th
54950,44.67081,-88.88927,1,place,,,,,Marion,WI,Waupaca County,54950,US,TIGER/Line® dataset from the US Census Bureau,Assembly District 40,State Senate District 14,WI8,117th
54228,44.23916,-87.64119,1,place,,,,,Mishicot,WI,Manitowoc County,54228,US,TIGER/Line® dataset from the US Census Bureau,Assembly District 2,State Senate District 1,WI6,117th
53919 and 54466,44.408897,-90.190911,0.33,place,,,,,Pittsville,WI,Wood County,54466,US,TIGER/Line® dataset from the US Census Bureau,Assembly District 70,State Senate District 24,WI7,117th
53178,43.018327,-88.600429,1,place,,,,,Sullivan,WI,Jefferson County,53178,US,TIGER/Line® dataset from the US Census Bureau,Assembly District 33,State Senate District 11,WI5,117th
54968,43.832741,-89.122651,1,place,,,,,Princeton,WI,Green Lake County,54968,US,TIGER/Line® dataset from the US Census Bureau,Assembly District 41,State Senate District 14,WI6,117th
54101,44.792284,-88.044067,1,place,,,,,Abrams,WI,Oconto County,54101,US,TIGER/Line® dataset from the US Census Bureau,Assembly District 89,State Senate District 30,WI8,117th
54814,46.853517,-90.915934,1,place,,,,,Bayfield,WI,Bayfield County,54814,US,TIGER/Line® dataset from the US Census Bureau,Assembly District 74,State Senate District 25,WI7,117th
53598,43.207783,-89.34178,1,place,,,,,Windsor,WI,Dane County,53598,US,TIGER/Line® dataset from the US Census Bureau,Assembly District 79,State Senate District 27,WI2,117th
54639,43.600044,-90.636482,1,place,,,,,La Farge,WI,Vernon County,54639,US,TIGER/Line® dataset from the US Census Bureau,Assembly District 96,State Senate District 32,WI3,117th
54872,45.782741,-92.385751,1,place,,,,,Siren,WI,Burnett County,54872,US,TIGER/Line® dataset from the US Census Bureau,Assembly District 28,State Senate District 10,WI7,117th
54614,43.89302,-90.99041,1,place,,,,,Bangor,WI,La Crosse County,54614,US,TIGER/Line® dataset from the US Census Bureau,Assembly District 94,State Senate District 32,WI3,117th
53015,43.91499,-87.74731,1,place,,,,,Cleveland,WI,Manitowoc County,53015,US,TIGER/Line® dataset from the US Census Bureau,Assembly District 27,State Senate District 9,WI6,117th
53932,43.417126,-89.070459,1,place,,,,,Fall River,WI,Columbia County,53932,US,TIGER/Line® dataset from the US Census Bureau,Assembly District 42,State Senate District 14,WI6,117th
54473,44.605786,-89.356834,1,place,,,,,Rosholt,WI,Portage County,54473,US,TIGER/Line® dataset from the US Census Bureau,Assembly District 71,State Senate District 24,WI3,117th
54460,44.94858,-90.5643,1,place,,,,,Owen,WI,Clark County,54460,US,TIGER/Line® dataset from the US Census Bureau,Assembly District 69,State Senate District 23,WI7,117th
54616,44.251701,-91.264753,1,place,,,,,Blair,WI,Trempealeau County,54616,US,TIGER/Line® dataset from the US Census Bureau,Assembly District 92,State Senate District 31,WI3,117th
54889,45.400115,-92.074695,1,place,,,,,Turtle Lake,WI,Barron County,54889,US,TIGER/Line® dataset from the US Census Bureau,Assembly District 75,State Senate District 25,WI7,117th
53929,43.7408,-90.27235,1,place,,,,,Elroy,WI,Juneau County,53929,US,TIGER/Line® dataset from the US Census Bureau,Assembly District 50,State Senate District 17,WI3,117th
53556,43.241475,-90.265197,1,place,,,,,Lone Rock,WI,Richland County,53556,US,TIGER/Line® dataset from the US Census Bureau,Assembly District 51,State Senate District 17,WI2,117th
54009,45.36179,-92.549952,1,place,,,,,Dresser,WI,Polk County,54009,US,TIGER/Line® dataset from the US Census Bureau,Assembly District 28,State Senate District 10,WI7,117th
54629,44.170774,-91.674962,1,place,,,,,Fountain City,WI,Buffalo County,54629,US,TIGER/Line® dataset from the US Census Bureau,Assembly District 92,State Senate District 31,WI3,117th
54658,43.669102,-91.134346,1,place,,,,,Stoddard,WI,Vernon County,54658,US,TIGER/Line® dataset from the US Census Bureau,Assembly District 96,State Senate District 32,WI3,117th
54410,44.535658,-90.007245,1,place,,,,,Arpin,WI,Wood County,54410,US,TIGER/Line® dataset from the US Census Bureau,Assembly District 70,State Senate District 24,WI7,117th
53502,42.712827,-89.45123,1,place,,,,,Albany,WI,Green County,53502,US,TIGER/Line® dataset from the US Census Bureau,Assembly District 45,State Senate District 15,WI2,117th
54747,44.356483,-91.443718,1,place,,,,,Independence,WI,Trempealeau County,54747,US,TIGER/Line® dataset from the US Census Bureau,Assembly District 92,State Senate District 31,WI3,117th
54960,43.922097,-89.310982,1,place,,,,,Neshkoro,WI,Marquette County,54960,US,TIGER/Line® dataset from the US Census Bureau,Assembly District 41,State Senate District 14,WI6,117th
53023,43.772128,-88.041299,1,place,,,,,Glenbeulah,WI,Sheboygan County,53023,US,TIGER/Line® dataset from the US Census Bureau,Assembly District 59,State Senate District 20,WI6,117th
53153,42.940971,-88.401712,1,place,,,,,North Prairie,WI,Waukesha County,53153,US,TIGER/Line® dataset from the US Census Bureau,Assembly District 99,State Senate District 33,WI1,117th
54028,44.95302,-92.2913,1,place,,,,,Woodville,WI,St. Croix County,54028,US,TIGER/Line® dataset from the US Census Bureau,Assembly District 29,State Senate District 10,WI7,117th
53570,42.74305,-89.621013,1,place,,,,,Monticello,WI,Green County,53570,US,TIGER/Line® dataset from the US Census Bureau,Assembly District 80,State Senate District 27,WI2,117th
53035,43.36296,-88.581515,1,place,,,,,Iron Ridge,WI,Dodge County,53035,US,TIGER/Line® dataset from the US Census Bureau,Assembly District 39,State Senate District 13,WI5,117th
54436,44.607247,-90.457313,1,place,,,,,Granton,WI,Clark County,54436,US,TIGER/Line® dataset from the US Census Bureau,Assembly District 69,State Senate District 23,WI7,117th
54498,44.944248,-90.638388,1,place,,,,,Withee,WI,Clark County,54498,US,TIGER/Line® dataset from the US Census Bureau,Assembly District 68,State Senate District 23,WI7,117th
54112,45.06498,-88.03427,1,place,,,,,Coleman,WI,Marinette County,54112,US,TIGER/Line® dataset from the US Census Bureau,Assembly District 89,State Senate District 30,WI8,117th
54423,44.51053,-89.42623,1,place,,,,,Custer,WI,Portage County,54423,US,TIGER/Line® dataset from the US Census Bureau,Assembly District 71,State Senate District 24,WI3,117th
53044,43.748441,-87.776246,1,place,,,,,Kohler,WI,Sheboygan County,53044,US,TIGER/Line® dataset from the US Census Bureau,Assembly District 27,State Senate District 9,WI6,117th
53936,43.88692,-89.70624,1,place,,,,,Grand Marsh,WI,Adams County,53936,US,TIGER/Line® dataset from the US Census Bureau,Assembly District 41,State Senate District 14,WI3,117th
54947,44.194993,-88.688629,1,place,,,,,Larsen,WI,Winnebago County,54947,US,TIGER/Line® dataset from the US Census Bureau,Assembly District 56,State Senate District 19,WI8,117th
53139,42.720022,-88.120616,1,place,,,,,Kansasville,WI,Racine County,53139,US,TIGER/Line® dataset from the US Census Bureau,Assembly District 63,State Senate District 21,WI1,117th
54941,43.85627,-88.985883,1,place,,,,,Green Lake,WI,Green Lake County,54941,US,TIGER/Line® dataset from the US Census Bureau,Assembly District 41,State Senate District 14,WI6,117th
53002,43.42055,-88.34093,1,place,,,,,Allenton,WI,Washington County,53002,US,TIGER/Line® dataset from the US Census Bureau,Assembly District 59,State Senate District 20,WI5,117th
54111,44.810274,-88.391648,1,place,,,,,Cecil,WI,Shawano County,54111,US,TIGER/Line® dataset from the US Census Bureau,Assembly District 36,State Senate District 12,WI8,117th
54810,45.44829,-92.4502,1,place,,,,,Balsam Lake,WI,Polk County,54810,US,TIGER/Line® dataset from the US Census Bureau,Assembly District 28,State Senate District 10,WI7,117th
53576,42.614273,-89.233129,1,place,,,,,Orfordville,WI,Rock County,53576,US,TIGER/Line® dataset from the US Census Bureau,Assembly District 43,State Senate District 15,WI2,117th
54618,43.988481,-90.239261,1,place,,,,,Camp Douglas,WI,Juneau County,54618,US,TIGER/Line® dataset from the US Census Bureau,Assembly District 50,State Senate District 17,WI3,117th
"54819, 53515, and 53586",42.57334,-90.23096,0.33,place,,,,,Shullsburg,WI,Lafayette County,53586,US,TIGER/Line® dataset from the US Census Bureau,Assembly District 51,State Senate District 17,WI2,117th
53968 and 54534,46.371032,-90.221645,0.33,place,,,,,Hurley,WI,Iron County,54534,US,TIGER/Line® dataset from the US Census Bureau,Assembly District 74,State Senate District 25,WI7,117th
53516,42.81028,-89.86207,1,place,,,,,Blanchardville,WI,Lafayette County,53516,US,TIGER/Line® dataset from the US Census Bureau,Assembly District 51,State Senate District 17,WI2,117th
54141,44.744566,-87.995493,1,place,,,,,Little Suamico,WI,Oconto County,54141,US,TIGER/Line® dataset from the US Census Bureau,Assembly District 89,State Senate District 30,WI8,117th
53820,42.692445,-90.731654,1,place,,,,,Potosi,WI,Grant County,53820,US,TIGER/Line® dataset from the US Census Bureau,Assembly District 49,State Senate District 17,WI3,117th
53951,43.4031,-89.872232,1,place,,,,,North Freedom,WI,Sauk County,53951,US,TIGER/Line® dataset from the US Census Bureau,Assembly District 81,State Senate District 27,WI2,117th
53170,42.552018,-88.160836,1,place,,,,,Silver Lake,WI,Kenosha County,53170,US,TIGER/Line® dataset from the US Census Bureau,Assembly District 61,State Senate District 21,WI1,117th
54824 and 53065,43.6861,-88.5465,0.33,place,,,,,Oakfield,WI,Fond Du Lac County,53065,US,TIGER/Line® dataset from the US Census Bureau,Assembly District 52,State Senate District 18,WI6,117th
54004,45.33135,-92.1713,1,place,,,,,Clayton,WI,Polk County,54004,US,TIGER/Line® dataset from the US Census Bureau,Assembly District 28,State Senate District 10,WI7,117th
54770,44.54969,-91.39266,1,place,,,,,Strum,WI,Trempealeau County,54770,US,TIGER/Line® dataset from the US Census Bureau,Assembly District 92,State Senate District 31,WI3,117th
53507 and 53011,43.65833,-88.00704,0.33,place,,,,,Cascade,WI,Sheboygan County,53011,US,TIGER/Line® dataset from the US Census Bureau,Assembly District 59,State Senate District 20,WI6,117th
54642,44.196358,-90.979249,1,place,,,,,Melrose,WI,Jackson County,54642,US,TIGER/Line® dataset from the US Census Bureau,Assembly District 92,State Senate District 31,WI3,117th
54623 and 54443,44.588962,-89.707997,0.33,place,,,,,Junction City,WI,Portage County,54443,US,TIGER/Line® dataset from the US Census Bureau,Assembly District 70,State Senate District 24,WI3,117th
53923 and 54909,44.25886,-89.40706,0.33,place,,,,,Almond,WI,Portage County,54909,US,TIGER/Line® dataset from the US Census Bureau,Assembly District 72,State Senate District 24,WI3,117th
53585,42.50252,-88.72899,1,place,,,,,Sharon,WI,Walworth County,53585,US,TIGER/Line® dataset from the US Census Bureau,Assembly District 31,State Senate District 11,WI1,117th
54014,44.655504,-92.573652,1,place,,,,,Hager City,WI,Pierce County,54014,US,TIGER/Line® dataset from the US Census Bureau,Assembly District 93,State Senate District 31,WI3,117th
54205,44.596082,-87.637308,1,place,,,,,Casco,WI,Kewaunee County,54205,US,TIGER/Line® dataset from the US Census Bureau,Assembly District 1,State Senate District 1,WI8,117th
53944,43.714061,-89.949337,1,place,,,,,Lyndon Station,WI,Juneau County,53944,US,TIGER/Line® dataset from the US Census Bureau,Assembly District 50,State Senate District 17,WI3,117th
54425,44.996496,-90.374411,1,place,,,,,Dorchester,WI,Clark County,54425,US,TIGER/Line® dataset from the US Census Bureau,Assembly District 69,State Senate District 23,WI7,117th
54847,46.599552,-91.437437,1,place,,,,,Iron River,WI,Bayfield County,54847,US,TIGER/Line® dataset from the US Census Bureau,Assembly District 74,State Senate District 25,WI7,117th
53529,43.239966,-89.523346,1,place,,,,,Dane,WI,Dane County,53529,US,TIGER/Line® dataset from the US Census Bureau,Assembly District 42,State Senate District 14,WI2,117th
54245,44.053321,-87.899912,1,place,,,,,Valders,WI,Manitowoc County,54245,US,TIGER/Line® dataset from the US Census Bureau,Assembly District 25,State Senate District 9,WI6,117th
54817,45.732675,-91.615044,1,place,,,,,Birchwood,WI,Washburn County,54817,US,TIGER/Line® dataset from the US Census Bureau,Assembly District 75,State Senate District 25,WI7,117th
54470,45.31747,-90.20848,1,place,,,,,Rib Lake,WI,Taylor County,54470,US,TIGER/Line® dataset from the US Census Bureau,Assembly District 87,State Senate District 29,WI7,117th
53504,42.690143,-89.922697,1,place,,,,,Argyle,WI,Lafayette County,53504,US,TIGER/Line® dataset from the US Census Bureau,Assembly District 51,State Senate District 17,WI2,117th
54412 and 53093,43.662704,-87.930254,0.33,place,,,,,Waldo,WI,Sheboygan County,53093,US,TIGER/Line® dataset from the US Census Bureau,Assembly District 59,State Senate District 20,WI6,117th
54435,45.30885,-89.49651,1,place,,,,,Gleason,WI,Lincoln County,54435,US,TIGER/Line® dataset from the US Census Bureau,Assembly District 35,State Senate District 12,WI7,117th
54026,45.196909,-92.530754,0.9,place,,,,,Star Prairie,WI,St. Croix County,54026,US,TIGER/Line® dataset from the US Census Bureau,Assembly District 29,State Senate District 10,WI7,117th
54558,45.90162,-89.48736,1,place,,,,,Saint Germain,WI,Vilas County,54558,US,TIGER/Line® dataset from the US Census Bureau,Assembly District 34,State Senate District 12,WI7,117th
54943,44.103548,-89.491566,1,place,,,,,Hancock,WI,Waushara County,54943,US,TIGER/Line® dataset from the US Census Bureau,Assembly District 72,State Senate District 24,WI6,117th
54740,44.744453,-92.226414,1,place,,,,,Elmwood,WI,Pierce County,54740,US,TIGER/Line® dataset from the US Census Bureau,Assembly District 93,State Senate District 31,WI3,117th
54247,44.14472,-87.82148,1,place,,,,,Whitelaw,WI,Manitowoc County,54247,US,TIGER/Line® dataset from the US Census Bureau,Assembly District 25,State Senate District 9,WI6,117th
54966,44.21386,-89.49234,1,place,,,,,Plainfield,WI,Waushara County,54966,US,TIGER/Line® dataset from the US Census Bureau,Assembly District 72,State Senate District 24,WI6,117th
53561,43.364531,-89.66396,1,place,,,,,Merrimac,WI,Sauk County,53561,US,TIGER/Line® dataset from the US Census Bureau,Assembly District 81,State Senate District 27,WI2,117th
54745,45.22441,-91.11736,1,place,,,,,Holcombe,WI,Chippewa County,54745,US,TIGER/Line® dataset from the US Census Bureau,Assembly District 67,State Senate District 23,WI7,117th
53503,43.16555,-89.9129,1,place,,,,,Arena,WI,Iowa County,53503,US,TIGER/Line® dataset from the US Census Bureau,Assembly District 81,State Senate District 27,WI2,117th
54741,44.60024,-90.96293,1,place,,,,,Fairchild,WI,Eau Claire County,54741,US,TIGER/Line® dataset from the US Census Bureau,Assembly District 68,State Senate District 23,WI3,117th
53091,43.483635,-88.450107,1,place,,,,,Theresa,WI,Dodge County,53091,US,TIGER/Line® dataset from the US Census Bureau,Assembly District 39,State Senate District 13,WI5,117th
53517,43.03822,-89.804576,1,place,,,,,Blue Mounds,WI,Dane County,53517,US,TIGER/Line® dataset from the US Census Bureau,Assembly District 80,State Senate District 27,WI2,117th
54486,44.75984,-89.039052,1,place,,,,,Tigerton,WI,Shawano County,54486,US,TIGER/Line® dataset from the US Census Bureau,Assembly District 6,State Senate District 2,WI8,117th
54622 and 53001,43.61916,-87.95204,0.33,place,,,,,Adell,WI,Sheboygan County,53001,US,TIGER/Line® dataset from the US Census Bureau,Assembly District 26,State Senate District 9,WI6,117th
54754,44.436841,-90.796318,1,place,,,,,Merrillan,WI,Clark County,54754,US,TIGER/Line® dataset from the US Census Bureau,Assembly District 69,State Senate District 23,WI7,117th
54433,45.16664,-90.80763,1,place,,,,,Gilman,WI,Taylor County,54433,US,TIGER/Line® dataset from the US Census Bureau,Assembly District 87,State Senate District 29,WI7,117th
54562,45.762075,-89.157339,1,place,,,,,Three Lakes,WI,Oneida County,54562,US,TIGER/Line® dataset from the US Census Bureau,Assembly District 34,State Senate District 12,WI7,117th
53019,43.6936,-88.36094,1,place,,,,,Eden,WI,Fond Du Lac County,53019,US,TIGER/Line® dataset from the US Census Bureau,Assembly District 59,State Senate District 20,WI6,117th
53059,43.289809,-88.533958,1,place,,,,,Neosho,WI,Dodge County,53059,US,TIGER/Line® dataset from the US Census Bureau,Assembly District 39,State Senate District 13,WI5,117th
53007,43.108459,-88.071489,1,place,,,,,Butler,WI,Waukesha County,53007,US,TIGER/Line® dataset from the US Census Bureau,Assembly District 22,State Senate District 8,WI5,117th
54655,43.369813,-90.808363,1,place,,,,,Soldiers Grove,WI,Crawford County,54655,US,TIGER/Line® dataset from the US Census Bureau,Assembly District 96,State Senate District 32,WI3,117th
54766,45.349548,-90.887173,1,place,,,,,Sheldon,WI,Taylor County,54766,US,TIGER/Line® dataset from the US Census Bureau,Assembly District 87,State Senate District 29,WI7,117th
54635,44.40376,-91.044171,1,place,,,,,Hixton,WI,Jackson County,54635,US,TIGER/Line® dataset from the US Census Bureau,Assembly District 92,State Senate District 31,WI3,117th
54726,44.95191,-91.03487,1,place,,,,,Boyd,WI,Chippewa County,54726,US,TIGER/Line® dataset from the US Census Bureau,Assembly District 68,State Senate District 23,WI3,117th
54514,46.01301,-90.49045,1,place,,,,,Butternut,WI,Ashland County,54514,US,TIGER/Line® dataset from the US Census Bureau,Assembly District 74,State Senate District 25,WI7,117th
54416,44.86303,-88.98205,1,place,,,,,Bowler,WI,Shawano County,54416,US,TIGER/Line® dataset from the US Census Bureau,Assembly District 35,State Senate District 12,WI8,117th
54471,44.929692,-89.364964,1,place,,,,,Ringle,WI,Marathon County,54471,US,TIGER/Line® dataset from the US Census Bureau,Assembly District 85,State Senate District 29,WI7,117th
54859,46.09709,-91.859913,1,place,,,,,Minong,WI,Washburn County,54859,US,TIGER/Line® dataset from the US Census Bureau,Assembly District 73,State Senate District 25,WI7,117th
53579,43.287987,-88.887444,1,place,,,,,Reeseville,WI,Dodge County,53579,US,TIGER/Line® dataset from the US Census Bureau,Assembly District 37,State Senate District 13,WI5,117th
54128,44.85303,-88.78816,1,place,,,,,Gresham,WI,Shawano County,54128,US,TIGER/Line® dataset from the US Census Bureau,Assembly District 6,State Senate District 2,WI8,117th
53125,42.55141,-88.5751,1,place,,,,,Fontana,WI,Walworth County,53125,US,TIGER/Line® dataset from the US Census Bureau,Assembly District 31,State Senate District 11,WI1,117th
53543,43.04666,-90.37985,1,place,,,,,Highland,WI,Iowa County,53543,US,TIGER/Line® dataset from the US Census Bureau,Assembly District 51,State Senate District 17,WI2,117th
53034,43.330523,-88.603032,1,place,,,,,Hustisford,WI,Dodge County,53034,US,TIGER/Line® dataset from the US Census Bureau,Assembly District 39,State Senate District 13,WI5,117th
54849,46.493011,-91.71342,1,place,,,,,Lake Nebagamon,WI,Douglas County,54849,US,TIGER/Line® dataset from the US Census Bureau,Assembly District 73,State Senate District 25,WI7,117th
53203,43.038313,-87.916534,1,place,,,,,Milwaukee,WI,Milwaukee County,53203,US,TIGER/Line® dataset from the US Census Bureau,Assembly District 16,State Senate District 6,WI4,117th
54670,43.848835,-90.468791,1,place,,,,,Wilton,WI,Monroe County,54670,US,TIGER/Line® dataset from the US Census Bureau,Assembly District 96,State Senate District 32,WI3,117th
54469,44.350934,-89.876274,1,place,,,,,Port Edwards,WI,Wood County,54469,US,TIGER/Line® dataset from the US Census Bureau,Assembly District 72,State Senate District 24,WI3,117th
53078,43.34028,-88.4576,1,place,,,,,Rubicon,WI,Dodge County,53078,US,TIGER/Line® dataset from the US Census Bureau,Assembly District 39,State Senate District 13,WI5,117th
53806 and 54930,44.026085,-89.486854,0.33,place,,,,,Coloma,WI,Waushara County,54930,US,TIGER/Line® dataset from the US Census Bureau,Assembly District 72,State Senate District 24,WI6,117th
54627,44.184171,-91.257707,1,place,,,,,Ettrick,WI,Trempealeau County,54627,US,TIGER/Line® dataset from the US Census Bureau,Assembly District 92,State Senate District 31,WI3,117th
54631,43.269667,-90.83178,1,place,,,,,Gays Mills,WI,Crawford County,54631,US,TIGER/Line® dataset from the US Census Bureau,Assembly District 96,State Senate District 32,WI3,117th
54648 and 53006,43.602789,-88.52302,0.33,place,,,,,Brownsville,WI,Dodge County,53006,US,TIGER/Line® dataset from the US Census Bureau,Assembly District 39,State Senate District 13,WI6,117th
53137,43.008958,-88.6726,1,place,,,,,Helenville,WI,Jefferson County,53137,US,TIGER/Line® dataset from the US Census Bureau,Assembly District 33,State Senate District 11,WI5,117th
54638,43.79219,-90.36846,1,place,,,,,Kendall,WI,Monroe County,54638,US,TIGER/Line® dataset from the US Census Bureau,Assembly District 50,State Senate District 17,WI3,117th
53063,43.957599,-87.792815,1,place,,,,,Newton,WI,Manitowoc County,53063,US,TIGER/Line® dataset from the US Census Bureau,Assembly District 27,State Senate District 9,WI6,117th
54858,45.51583,-92.461712,1,place,,,,,Milltown,WI,Polk County,54858,US,TIGER/Line® dataset from the US Census Bureau,Assembly District 28,State Senate District 10,WI7,117th
54664 and 53926,43.679317,-89.186656,0.33,place,,,,,Dalton,WI,Green Lake County,53926,US,TIGER/Line® dataset from the US Census Bureau,Assembly District 42,State Senate District 14,WI6,117th
54613,44.02719,-89.8879,1,place,,,,,Arkdale,WI,Adams County,54613,US,TIGER/Line® dataset from the US Census Bureau,Assembly District 72,State Senate District 24,WI3,117th
54489,44.462338,-90.003283,1,place,,,,,Vesper,WI,Wood County,54489,US,TIGER/Line® dataset from the US Census Bureau,Assembly District 70,State Senate District 24,WI7,117th
54082,45.06804,-92.749369,1,place,,,,,Houlton,WI,St. Croix County,54082,US,TIGER/Line® dataset from the US Census Bureau,Assembly District 30,State Senate District 10,WI7,117th
54610,44.346721,-91.836481,1,place,,,,,Alma,WI,Buffalo County,54610,US,TIGER/Line® dataset from the US Census Bureau,Assembly District 92,State Senate District 31,WI3,117th
54234,45.178293,-87.101748,1,place,,,,,Sister Bay,WI,Door County,54234,US,TIGER/Line® dataset from the US Census Bureau,Assembly District 1,State Senate District 1,WI8,117th
54856,46.43523,-91.05991,1,place,,,,,Mason,WI,Bayfield County,54856,US,TIGER/Line® dataset from the US Census Bureau,Assembly District 74,State Senate District 25,WI7,117th
54644,44.021422,-91.03295,1,place,,,,,Mindoro,WI,La Crosse County,54644,US,TIGER/Line® dataset from the US Census Bureau,Assembly District 94,State Senate District 32,WI3,117th
54156,45.63524,-87.99095,1,place,,,,,Pembine,WI,Marinette County,54156,US,TIGER/Line® dataset from the US Census Bureau,Assembly District 36,State Senate District 12,WI8,117th
54204,44.752379,-87.625888,1,place,,,,,Brussels,WI,Door County,54204,US,TIGER/Line® dataset from the US Census Bureau,Assembly District 1,State Senate District 1,WI8,117th
54475,44.474097,-89.795501,1,place,,,,,Rudolph,WI,Wood County,54475,US,TIGER/Line® dataset from the US Census Bureau,Assembly District 70,State Senate District 24,WI3,117th
54227,44.276554,-87.801651,1,place,,,,,Maribel,WI,Manitowoc County,54227,US,TIGER/Line® dataset from the US Census Bureau,Assembly District 2,State Senate District 1,WI6,117th
54491,45.248003,-88.803154,1,place,,,,,White Lake,WI,Langlade County,54491,US,TIGER/Line® dataset from the US Census Bureau,Assembly District 36,State Senate District 12,WI7,117th
54870,45.73714,-91.775875,1,place,,,,,Sarona,WI,Washburn County,54870,US,TIGER/Line® dataset from the US Census Bureau,Assembly District 75,State Senate District 25,WI7,117th
54424,45.272303,-89.086848,1,place,,,,,Deerbrook,WI,Langlade County,54424,US,TIGER/Line® dataset from the US Census Bureau,Assembly District 35,State Senate District 12,WI7,117th
53057,43.82638,-88.24621,1,place,,,,,Mount Calvary,WI,Fond Du Lac County,53057,US,TIGER/Line® dataset from the US Census Bureau,Assembly District 59,State Senate District 20,WI6,117th
54974,43.775697,-88.659504,1,place,,,,,Rosendale,WI,Fond Du Lac County,54974,US,TIGER/Line® dataset from the US Census Bureau,Assembly District 53,State Senate District 18,WI6,117th
53079,43.82277,-88.16704,1,place,,,,,Saint Cloud,WI,Fond Du Lac County,53079,US,TIGER/Line® dataset from the US Census Bureau,Assembly District 59,State Senate District 20,WI6,117th
54977,44.451051,-89.146915,1,place,,,,,Scandinavia,WI,Waupaca County,54977,US,TIGER/Line® dataset from the US Census Bureau,Assembly District 40,State Senate District 14,WI8,117th
53510,42.73611,-90.33429,1,place,,,,,Belmont,WI,Lafayette County,53510,US,TIGER/Line® dataset from the US Census Bureau,Assembly District 51,State Senate District 17,WI2,117th
54407,44.46886,-89.31261,1,place,,,,,Amherst Junction,WI,Portage County,54407,US,TIGER/Line® dataset from the US Census Bureau,Assembly District 71,State Senate District 24,WI3,117th
54621,43.65775,-91.09652,1,place,,,,,Chaseburg,WI,Vernon County,54621,US,TIGER/Line® dataset from the US Census Bureau,Assembly District 96,State Senate District 32,WI3,117th
54805,45.4169,-92.03296,1,place,,,,,Almena,WI,Barron County,54805,US,TIGER/Line® dataset from the US Census Bureau,Assembly District 75,State Senate District 25,WI7,117th
54759,44.509108,-92.131821,1,place,,,,,Pepin,WI,Pepin County,54759,US,TIGER/Line® dataset from the US Census Bureau,Assembly District 93,State Senate District 31,WI3,117th
54651,43.696538,-90.548053,1,place,,,,,Ontario,WI,Vernon County,54651,US,TIGER/Line® dataset from the US Census Bureau,Assembly District 96,State Senate District 32,WI3,117th
53924,43.46358,-90.28225,1,place,,,,,Cazenovia,WI,Richland County,53924,US,TIGER/Line® dataset from the US Census Bureau,Assembly District 51,State Senate District 17,WI3,117th
54896,45.832746,-91.014362,1,place,,,,,Winter,WI,Sawyer County,54896,US,TIGER/Line® dataset from the US Census Bureau,Assembly District 87,State Senate District 29,WI7,117th
54624,43.480668,-91.133309,1,place,,,,,De Soto,WI,Vernon County,54624,US,TIGER/Line® dataset from the US Census Bureau,Assembly District 96,State Senate District 32,WI3,117th
54480,45.07691,-90.31514,1,place,,,,,Stetsonville,WI,Taylor County,54480,US,TIGER/Line® dataset from the US Census Bureau,Assembly District 87,State Senate District 29,WI7,117th
53518,43.19665,-90.56485,1,place,,,,,Blue River,WI,Grant County,53518,US,TIGER/Line® dataset from the US Census Bureau,Assembly District 49,State Senate District 17,WI3,117th
53577,43.293776,-90.022327,1,place,,,,,Plain,WI,Sauk County,53577,US,TIGER/Line® dataset from the US Census Bureau,Assembly District 51,State Senate District 17,WI2,117th
54531,45.74835,-89.821598,1,place,,,,,Hazelhurst,WI,Oneida County,54531,US,TIGER/Line® dataset from the US Census Bureau,Assembly District 34,State Senate District 12,WI7,117th
54749,44.947538,-92.07521,1,place,,,,,Knapp,WI,Dunn County,54749,US,TIGER/Line® dataset from the US Census Bureau,Assembly District 29,State Senate District 10,WI3,117th
53930,43.6866,-89.483441,1,place,,,,,Endeavor,WI,Marquette County,53930,US,TIGER/Line® dataset from the US Census Bureau,Assembly District 42,State Senate District 14,WI6,117th
54547,46.143746,-90.110725,1,place,,,,,Mercer,WI,Iron County,54547,US,TIGER/Line® dataset from the US Census Bureau,Assembly District 74,State Senate District 25,WI7,117th
54454 and 54965,44.155967,-89.02096,0.33,place,,,,,Pine River,WI,Waushara County,54965,US,TIGER/Line® dataset from the US Census Bureau,Assembly District 40,State Senate District 14,WI6,117th
54922 and 54213,44.722418,-87.528122,0.33,place,,,,,Forestville,WI,Door County,54213,US,TIGER/Line® dataset from the US Census Bureau,Assembly District 1,State Senate District 1,WI8,117th
54626,43.220573,-91.034135,1,place,,,,,Eastman,WI,Crawford County,54626,US,TIGER/Line® dataset from the US Census Bureau,Assembly District 96,State Senate District 32,WI3,117th
53804 and 54721,44.602774,-92.062219,0.33,place,,,,,Arkansaw,WI,Pepin County,54721,US,TIGER/Line® dataset from the US Census Bureau,Assembly District 93,State Senate District 31,WI3,117th
54209,45.012261,-87.266031,1,place,,,,,Egg Harbor,WI,Door County,54209,US,TIGER/Line® dataset from the US Census Bureau,Assembly District 1,State Senate District 1,WI8,117th
54659,44.291449,-91.087671,1,place,,,,,Taylor,WI,Jackson County,54659,US,TIGER/Line® dataset from the US Census Bureau,Assembly District 92,State Senate District 31,WI3,117th
54876,45.821216,-91.462771,1,place,,,,,Stone Lake,WI,Sawyer County,54876,US,TIGER/Line® dataset from the US Census Bureau,Assembly District 87,State Senate District 29,WI7,117th
54979,43.839613,-88.543924,1,place,,,,,Van Dyne,WI,Fond Du Lac County,54979,US,TIGER/Line® dataset from the US Census Bureau,Assembly District 53,State Senate District 18,WI6,117th
53826,43.110147,-90.957097,1,place,,,,,Wauzeka,WI,Crawford County,53826,US,TIGER/Line® dataset from the US Census Bureau,Assembly District 96,State Senate District 32,WI3,117th
54541,45.561723,-88.706496,1,place,,,,,Laona,WI,Forest County,54541,US,TIGER/Line® dataset from the US Census Bureau,Assembly District 36,State Senate District 12,WI7,117th
54422,44.95525,-90.43458,1,place,,,,,Curtiss,WI,Clark County,54422,US,TIGER/Line® dataset from the US Census Bureau,Assembly District 69,State Senate District 23,WI7,117th
54888,45.966368,-91.886372,1,place,,,,,Trego,WI,Washburn County,54888,US,TIGER/Line® dataset from the US Census Bureau,Assembly District 73,State Senate District 25,WI7,117th
54202,45.077002,-87.14603,1,place,,,,,Baileys Harbor,WI,Door County,54202,US,TIGER/Line® dataset from the US Census Bureau,Assembly District 1,State Senate District 1,WI8,117th
54762,45.262353,-91.992842,1,place,,,,,Prairie Farm,WI,Barron County,54762,US,TIGER/Line® dataset from the US Census Bureau,Assembly District 75,State Senate District 25,WI7,117th
54420,44.606893,-90.375852,1,place,,,,,Chili,WI,Clark County,54420,US,TIGER/Line® dataset from the US Census Bureau,Assembly District 69,State Senate District 23,WI7,117th
54519 and 53569,43.031263,-90.492475,0.33,place,,,,,Montfort,WI,Grant County,53569,US,TIGER/Line® dataset from the US Census Bureau,Assembly District 49,State Senate District 17,WI3,117th
54539,45.775685,-89.574808,1,place,,,,,Lake Tomahawk,WI,Oneida County,54539,US,TIGER/Line® dataset from the US Census Bureau,Assembly District 34,State Senate District 12,WI7,117th
54566,45.443574,-88.619413,1,place,,,,,Wabeno,WI,Forest County,54566,US,TIGER/Line® dataset from the US Census Bureau,Assembly District 36,State Senate District 12,WI7,117th
